id,formatted_address,lat,lng,location_type,record_date,grade,record_type
93818,"""Beacon St & Park Dr, Boston, MA 02215, USA""",42.346688,-71.105134,"""APPROXIMATE""",1985-09-16 00:00:00,3,2014_leak
42122,"""282 Main St, Winchester, MA 01890, USA""",42.444362,-71.134975,"""ROOFTOP""",1989-10-04 00:00:00,3,2014_leak
39014,"""N Main St & Hospital Rd, Leominster, MA 01453, USA""",42.540883,-71.759989,"""APPROXIMATE""",1990-04-20 00:00:00,3,2014_leak
42817,"""62 Main St, Melrose, MA 02176, USA""",42.443408,-71.06813,"""RANGE_INTERPOLATED""",1990-04-23 00:00:00,3,2014_leak
93831,"""16 Grove St, Rockland, MA 02370, USA""",42.125897,-70.917963,"""RANGE_INTERPOLATED""",1990-06-07 00:00:00,3,2014_leak
40217,"""455 Mountain Ave, Revere, MA 02151, USA""",42.415803,-71.02505,"""ROOFTOP""",1990-06-13 00:00:00,3,2014_leak
40213,"""105 Thornton St, Revere, MA 02151, USA""",42.40871,-70.997934,"""ROOFTOP""",1990-06-21 00:00:00,3,2014_leak
336417,"""91 Hill St, Weymouth, MA 02189, USA""",42.216439,-70.917428,"""ROOFTOP""",1990-07-16 00:00:00,3,2014_leak
336411,"""72 Charles Diersch St, Weymouth, MA 02189, USA""",42.206097,-70.92121,"""ROOFTOP""",1990-07-16 00:00:00,3,2014_leak
39137,"""5 Mutton Ln, East Weymouth, MA 02189, USA""",42.194899,-70.929616,"""ROOFTOP""",1990-07-17 00:00:00,3,2014_leak
39061,"""25 Rucille Ave, Weymouth, MA 02188, USA""",42.202484,-70.967551,"""ROOFTOP""",1990-07-17 00:00:00,3,2014_leak
39131,"""35 Great Republic Ave, South Weymouth, MA 02190, USA""",42.17501,-70.943895,"""ROOFTOP""",1990-07-18 00:00:00,3,2014_leak
39095,"""157 Pearl St, North Weymouth, MA 02191, USA""",42.237394,-70.947202,"""ROOFTOP""",1990-07-31 00:00:00,3,2014_leak
39093,"""209 Idlewell Blvd, Weymouth, MA 02188, USA""",42.233128,-70.954007,"""ROOFTOP""",1990-08-01 00:00:00,3,2014_leak
39092,"""11 Saunders St, North Weymouth, MA 02191, USA""",42.242002,-70.959862,"""ROOFTOP""",1990-08-06 00:00:00,3,2014_leak
43866,"""24 Agawam Rd, Acton, MA 01720, USA""",42.486552,-71.467365,"""RANGE_INTERPOLATED""",1990-09-12 00:00:00,3,2014_leak
43865,"""Duggan Rd & Townsend Rd, Acton, MA 01720, USA""",42.46572,-71.48591,"""APPROXIMATE""",1990-10-02 00:00:00,3,2014_leak
43797,"""42 Central St, Acton, MA 01720, USA""",42.462453,-71.460545,"""RANGE_INTERPOLATED""",1990-10-22 00:00:00,3,2014_leak
42479,"""52 Sewall St, Newton, MA 02465, USA""",42.343086,-71.228355,"""RANGE_INTERPOLATED""",1990-10-22 00:00:00,3,2014_leak
43799,"""36 Great Rd, Acton, MA 01720, USA""",42.474252,-71.407897,"""ROOFTOP""",1990-10-30 00:00:00,3,2014_leak
39769,"""Washington St & Plymouth Rd, Braintree, MA 02184, USA""",42.179869,-71.014665,"""APPROXIMATE""",1990-11-27 00:00:00,3,2014_leak
43634,"""99 Fletcher Rd, Bedford, MA 01730, USA""",42.497982,-71.279933,"""RANGE_INTERPOLATED""",1990-12-06 00:00:00,3,2014_leak
93170,"""Brookside Pkwy & Newport Ave, Medford, MA 02155, USA""",42.422995,-71.104355,"""APPROXIMATE""",1990-12-19 00:00:00,3,2014_leak
93176,"""4 Thorndike St, Reading, MA 01867, USA""",42.529307,-71.098502,"""RANGE_INTERPOLATED""",1991-02-28 00:00:00,3,2014_leak
93178,"""17 Hartwell Ave, Lexington, MA 02421, USA""",42.475245,-71.254915,"""ROOFTOP""",1991-03-07 00:00:00,3,2014_leak
39077,"""514 Broad St, Weymouth, MA 02188, USA""",42.217825,-70.939313,"""ROOFTOP""",1991-05-07 00:00:00,3,2014_leak
93878,"""588 Market St, Rockland, MA 02370, USA""",42.122844,-70.899408,"""RANGE_INTERPOLATED""",1991-05-20 00:00:00,3,2014_leak
39557,"""265 N Main St, Cohasset, MA 02025, USA""",42.243449,-70.818894,"""ROOFTOP""",1991-06-14 00:00:00,3,2014_leak
41546,"""2 Mayfair St, Lynn, MA 01904, USA""",42.491195,-70.958522,"""ROOFTOP""",1991-08-16 00:00:00,3,2014_leak
44044,"""6 Clark Rd, Hingham, MA 02043, USA""",42.235496,-70.881597,"""RANGE_INTERPOLATED""",1991-08-28 00:00:00,3,2014_leak
41944,"""27 Squanto Rd, Woburn, MA 01801, USA""",42.461348,-71.199674,"""ROOFTOP""",1991-08-29 00:00:00,3,2014_leak
42089,"""51 Mystic Valley Pkwy, Winchester, MA 01890, USA""",42.445171,-71.137351,"""ROOFTOP""",1991-09-10 00:00:00,3,2014_leak
42441,"""14 Grove St, Reading, MA 01867, USA""",42.532575,-71.119358,"""RANGE_INTERPOLATED""",1991-09-13 00:00:00,3,2014_leak
93918,"""47 Main St, Wareham, MA 02571, USA""",41.754267,-70.711101,"""RANGE_INTERPOLATED""",1991-10-01 00:00:00,3,2014_leak
43857,"""Willow St & Homestead St, Acton, MA 01720, USA""",42.471597,-71.476234,"""APPROXIMATE""",1991-10-29 00:00:00,3,2014_leak
42241,"""Bent Rd & Old Meadow Rd, Sudbury, MA 01776, USA""",42.366367,-71.439977,"""APPROXIMATE""",1991-11-06 00:00:00,3,2014_leak
93203,"""115 Woodside Rd, Sudbury, MA 01776, USA""",42.347203,-71.410334,"""ROOFTOP""",1991-11-06 00:00:00,3,2014_leak
41517,"""15 Wallace Rd, Marblehead, MA 01945, USA""",42.493721,-70.859116,"""ROOFTOP""",1991-12-13 00:00:00,3,2014_leak
41541,"""155 Lynnfield St, Lynn, MA 01904, USA""",42.489385,-70.967582,"""ROOFTOP""",1991-12-15 00:00:00,3,2014_leak
41446,"""2 Tully Rd, Marblehead, MA 01945, USA""",42.493241,-70.87963,"""ROOFTOP""",1991-12-26 00:00:00,3,2014_leak
93219,"""52 Orchard St, Marblehead, MA 01945, USA""",42.492035,-70.861596,"""ROOFTOP""",1992-01-03 00:00:00,3,2014_leak
93221,"""43 West St, Marblehead, MA 01945, USA""",42.485426,-70.891449,"""ROOFTOP""",1992-01-09 00:00:00,3,2014_leak
42619,"""102 Boyd St, Watertown, MA 02472, USA""",42.360342,-71.190142,"""RANGE_INTERPOLATED""",1992-02-15 00:00:00,3,2014_leak
42835,"""167 Lebanon St, Melrose, MA 02176, USA""",42.445175,-71.056806,"""RANGE_INTERPOLATED""",1992-02-27 00:00:00,3,2014_leak
43871,"""W Water St & John Burke Dr, Rockland, MA 02370, USA""",42.119879,-70.926052,"""APPROXIMATE""",1992-03-16 00:00:00,3,2014_leak
38861,"""117 Dudley River Rd, Southbridge, MA 01550, USA""",42.065487,-72.00279,"""RANGE_INTERPOLATED""",1992-03-18 00:00:00,3,2014_leak
40757,"""614 Gallivan Blvd, Dorchester, MA 02122, USA""",42.283593,-71.050793,"""ROOFTOP""",1992-03-19 00:00:00,2,2014_leak
39070,"""605 Broad St, East Weymouth, MA 02189, USA""",42.216251,-70.934436,"""ROOFTOP""",1992-04-21 00:00:00,3,2014_leak
42311,"""656 Boston Post Rd, Sudbury, MA 01776, USA""",42.361081,-71.44229,"""ROOFTOP""",1992-05-14 00:00:00,3,2014_leak
43662,"""22 Jackson St, Ayer, MA 01432, USA""",42.564937,-71.587342,"""ROOFTOP""",1992-05-19 00:00:00,3,2014_leak
41243,"""Grandview Ave & Pratt St, Saugus, MA 01906, USA""",42.45567,-70.995088,"""APPROXIMATE""",1992-05-29 00:00:00,3,2014_leak
41240,"""27 Westland Ave, Saugus, MA 01906, USA""",42.456839,-71.000374,"""RANGE_INTERPOLATED""",1992-06-02 00:00:00,3,2014_leak
42432,"""20 Copeland Ave, Reading, MA 01867, USA""",42.51886,-71.115998,"""ROOFTOP""",1992-06-17 00:00:00,3,2014_leak
42428,"""72 Woburn St, Reading, MA 01867, USA""",42.523747,-71.106713,"""RANGE_INTERPOLATED""",1992-06-18 00:00:00,3,2014_leak
41311,"""131 Boston St, Salem, MA 01970, USA""",42.521158,-70.914597,"""ROOFTOP""",1992-06-25 00:00:00,3,2014_leak
43195,"""26 Fletcher Ln, Littleton, MA 01460, USA""",42.532937,-71.46104,"""RANGE_INTERPOLATED""",1992-06-29 00:00:00,3,2014_leak
41820,"""165 Forest Hill Ave, Lynnfield, MA 01940, USA""",42.541349,-71.039989,"""ROOFTOP""",1992-07-01 00:00:00,3,2014_leak
41822,"""674 Main St, Lynnfield, MA 01940, USA""",42.541326,-71.047861,"""ROOFTOP""",1992-07-08 00:00:00,3,2014_leak
41360,"""40 Perley Ave, Peabody, MA 01960, USA""",42.547424,-71.027767,"""ROOFTOP""",1992-07-15 00:00:00,3,2014_leak
39206,"""83 Westgate Rd, Wellesley, MA 02481, USA""",42.309778,-71.304201,"""ROOFTOP""",1992-07-23 00:00:00,3,2014_leak
39974,"""114 Thornton St, Boston, MA 02119, USA""",42.323136,-71.091185,"""ROOFTOP""",1992-07-24 00:00:00,3,2014_leak
40008,"""83 Blue Hill Avenue, Roxbury, MA 02119, USA""",42.322462,-71.077323,"""ROOFTOP""",1992-07-30 00:00:00,3,2014_leak
39207,"""5 Dean Rd, Wellesley Hills, MA 02481, USA""",42.325488,-71.275402,"""ROOFTOP""",1992-08-03 00:00:00,3,2014_leak
93970,"""Central St & White St, Weymouth, MA 02190, USA""",42.169118,-70.94408,"""APPROXIMATE""",1992-10-08 00:00:00,3,2014_leak
39314,"""Franklin St & Payne St, Quincy, MA 02169, USA""",42.239775,-71.003249,"""APPROXIMATE""",1992-10-23 00:00:00,3,2014_leak
39306,"""53 Suomi Rd, Quincy, MA 02169, USA""",42.245726,-71.018552,"""ROOFTOP""",1992-10-27 00:00:00,3,2014_leak
41527,"""198 Fays Ave, Lynn, MA 01904, USA""",42.492916,-70.94384,"""ROOFTOP""",1992-12-20 00:00:00,3,2014_leak
41147,"""48 Stanley Rd, Swampscott, MA 01907, USA""",42.480375,-70.892193,"""ROOFTOP""",1992-12-22 00:00:00,3,2014_leak
41990,"""363 Lexington St, Woburn, MA 01801, USA""",42.454175,-71.190824,"""RANGE_INTERPOLATED""",1992-12-30 00:00:00,3,2014_leak
93297,"""57 Orchard St, Marblehead, MA 01945, USA""",42.492207,-70.860818,"""ROOFTOP""",1993-02-03 00:00:00,3,2014_leak
41153,"""974 Humphrey St, Swampscott, MA 01907, USA""",42.477211,-70.891642,"""ROOFTOP""",1993-02-06 00:00:00,3,2014_leak
93300,"""15 Ernest St, Saugus, MA 01906, USA""",42.448597,-71.008141,"""RANGE_INTERPOLATED""",1993-02-11 00:00:00,3,2014_leak
40917,"""Tremont St & E Berkeley St, Boston, MA 02116, USA""",42.345265,-71.069839,"""APPROXIMATE""",1993-02-15 00:00:00,3,2014_leak
41458,"""30 Thompson Rd, Marblehead, MA 01945, USA""",42.489625,-70.872399,"""ROOFTOP""",1993-03-02 00:00:00,3,2014_leak
93305,"""10 Laurel St, Saugus, MA 01906, USA""",42.444959,-71.013409,"""ROOFTOP""",1993-03-02 00:00:00,3,2014_leak
42649,"""Claremont St & Lombard St, Newton, MA 02458, USA""",42.349501,-71.192135,"""APPROXIMATE""",1993-03-03 00:00:00,3,2014_leak
39588,"""73 Brook Hill Rd, Milton, MA 02186, USA""",42.267213,-71.071683,"""ROOFTOP""",1993-03-31 00:00:00,3,2014_leak
39587,"""Adams St & Brook Rd, Milton, MA 02186, USA""",42.259388,-71.044563,"""APPROXIMATE""",1993-04-14 00:00:00,3,2014_leak
43858,"""2 Fox Hill Rd, Acton, MA 01720, USA""",42.460078,-71.437261,"""ROOFTOP""",1993-04-14 00:00:00,3,2014_leak
120040,"""8 Williams Ct, Weymouth, MA 02188, USA""",42.21909,-70.96516,"""ROOFTOP""",1993-04-18 00:00:00,3,2014_leak
40322,"""143 E Cottage St, Boston, MA 02125, USA""",42.320842,-71.06344,"""ROOFTOP""",1993-05-16 00:00:00,3,2014_leak
42522,"""3 Columbus St, Newton, MA 02461, USA""",42.324117,-71.208806,"""RANGE_INTERPOLATED""",1993-05-21 00:00:00,3,2014_leak
41918,"""167 Bridge St, Beverly, MA 01915, USA""",42.553915,-70.904724,"""ROOFTOP""",1993-06-02 00:00:00,3,2014_leak
94007,"""70 Glendale St, Weymouth, MA 02188, USA""",42.219341,-70.957681,"""ROOFTOP""",1993-06-03 00:00:00,3,2014_leak
39100,"""467 Main St, South Weymouth, MA 02190, USA""",42.190987,-70.956084,"""ROOFTOP""",1993-06-08 00:00:00,3,2014_leak
39713,"""5 Mann St, Braintree, MA 02184, USA""",42.175906,-71.005097,"""ROOFTOP""",1993-06-16 00:00:00,3,2014_leak
40982,"""Columbus Ave & Holyoke St, Boston, MA 02116, USA""",42.344269,-71.07714,"""APPROXIMATE""",1993-07-30 00:00:00,3,2014_leak
94043,"""19 Farwell St, Waltham, MA 02453, USA""",42.36783,-71.217953,"""ROOFTOP""",1993-08-02 00:00:00,3,2014_leak
93331,"""Broadway & Fulton St, Malden, MA 02148, USA""",42.433762,-71.038929,"""APPROXIMATE""",1993-08-11 00:00:00,3,2014_leak
94062,"""1576 Main St, Leicester, MA 01524, USA""",42.246351,-71.934923,"""RANGE_INTERPOLATED""",1993-08-13 00:00:00,3,2014_leak
43427,"""533 Lexington Rd, Concord, MA 01742, USA""",42.45958,-71.33009,"""ROOFTOP""",1993-08-13 00:00:00,3,2014_leak
41637,"""79 Carter Rd, Lynn, MA 01904, USA""",42.481412,-70.955303,"""ROOFTOP""",1993-08-13 00:00:00,3,2014_leak
41847,"""14 Eastern Point Rd, Gloucester, MA 01930, USA""",42.602525,-70.655214,"""ROOFTOP""",1993-09-28 00:00:00,3,2014_leak
41673,"""517 Essex St, Lynn, MA 01902, USA""",42.466983,-70.947499,"""ROOFTOP""",1993-10-04 00:00:00,3,2014_leak
94605,"""490 Worcester St, Wellesley Hills, MA 02481, USA""",42.31121,-71.277335,"""ROOFTOP""",1993-11-29 00:00:00,3,2014_leak
42157,"""384 Glen Rd, Weston, MA 02493, USA""",42.328655,-71.29707,"""RANGE_INTERPOLATED""",1993-12-09 00:00:00,3,2014_leak
39961,"""51 Hawthorne St, Roxbury, MA 02119, USA""",42.32411,-71.092988,"""ROOFTOP""",1993-12-17 00:00:00,3,2014_leak
41466,"""11 Gallison Ave, Marblehead, MA 01945, USA""",42.488998,-70.86455,"""ROOFTOP""",1993-12-31 00:00:00,3,2014_leak
41461,"""32 Phillips St, Marblehead, MA 01945, USA""",42.490984,-70.862442,"""ROOFTOP""",1994-01-02 00:00:00,3,2014_leak
39905,"""7 Liberty Pl, Boston, MA 02127, USA""",42.328959,-71.053616,"""ROOFTOP""",1994-03-24 00:00:00,3,2014_leak
93524,"""194 Ayer Rd, Littleton, MA 01460, USA""",42.549795,-71.525201,"""ROOFTOP""",1994-04-22 00:00:00,3,2014_leak
39952,"""25 Whittier St, Boston, MA 02120, USA""",42.333885,-71.088648,"""ROOFTOP""",1994-04-22 00:00:00,3,2014_leak
39338,"""9 Avalon Ave, Quincy, MA 02169, USA""",42.248028,-70.974961,"""ROOFTOP""",1994-05-02 00:00:00,3,2014_leak
94180,"""Maple St, Leicester, MA 01524, USA""",42.243576,-71.916202,"""GEOMETRIC_CENTER""",1994-05-02 00:00:00,3,2014_leak
39330,"""21 S Walnut St, Quincy, MA 02169, USA""",42.247226,-70.996071,"""ROOFTOP""",1994-05-04 00:00:00,3,2014_leak
39344,"""139 Elm St, Quincy, MA 02169, USA""",42.248869,-70.996583,"""ROOFTOP""",1994-05-09 00:00:00,3,2014_leak
39385,"""50 Hughes St, Quincy, MA 02169, USA""",42.231532,-71.004236,"""ROOFTOP""",1994-05-12 00:00:00,3,2014_leak
39383,"""436 Sea St, Quincy, MA 02169, USA""",42.26195,-70.982311,"""RANGE_INTERPOLATED""",1994-05-17 00:00:00,3,2014_leak
39851,"""67 Linden Rd, West Roxbury, MA 02132, USA""",42.265048,-71.161712,"""ROOFTOP""",1994-05-17 00:00:00,3,2014_leak
118919,"""6 Warren St, North Brookfield, MA 01535, USA""",42.276146,-72.086755,"""RANGE_INTERPOLATED""",1994-05-26 00:00:00,3,2014_leak
39368,"""153 Kendrick Ave, Quincy, MA 02169, USA""",42.237884,-70.998456,"""RANGE_INTERPOLATED""",1994-05-26 00:00:00,3,2014_leak
94174,"""323 Main St, Barre, MA 01005, USA""",42.379749,-72.107899,"""RANGE_INTERPOLATED""",1994-05-27 00:00:00,3,2014_leak
39366,"""241 Beale St, Quincy, MA 02170, USA""",42.26197,-71.024581,"""RANGE_INTERPOLATED""",1994-05-29 00:00:00,3,2014_leak
94196,"""33 Carl Gardner Rd, Bourne, MA 02532, USA""",41.72201,-70.606992,"""RANGE_INTERPOLATED""",1994-06-07 00:00:00,3,2014_leak
39362,"""54 Wayland St, Quincy, MA 02170, USA""",42.267753,-71.020242,"""ROOFTOP""",1994-06-07 00:00:00,3,2014_leak
39423,"""690 Willard St, Quincy, MA 02169, USA""",42.23367,-71.028277,"""ROOFTOP""",1994-06-15 00:00:00,3,2014_leak
39288,"""1 Exeter St, Quincy, MA 02170, USA""",42.264852,-71.028319,"""ROOFTOP""",1994-06-16 00:00:00,3,2014_leak
39359,"""64 Piermont St, Quincy, MA 02170, USA""",42.262457,-71.032405,"""ROOFTOP""",1994-06-21 00:00:00,3,2014_leak
39292,"""Quincy Shore Dr & Fenno St, Quincy, MA 02170, USA""",42.27374,-71.000818,"""APPROXIMATE""",1994-06-23 00:00:00,3,2014_leak
39576,"""Randolph Ave & Russell St, Milton, MA 02186, USA""",42.264018,-71.068408,"""APPROXIMATE""",1994-06-25 00:00:00,3,2014_leak
38956,"""Everett St & Park St, Southbridge, MA 01550, USA""",42.072543,-72.033312,"""APPROXIMATE""",1994-07-08 00:00:00,3,2014_leak
38863,"""70 Central St, Southbridge, MA 01550, USA""",42.076817,-72.032465,"""RANGE_INTERPOLATED""",1994-07-17 00:00:00,3,2014_leak
93412,"""40 Commonwealth Rd, Wayland, MA 01778, USA""",42.311369,-71.374179,"""RANGE_INTERPOLATED""",1994-07-25 00:00:00,3,2014_leak
39321,"""10 Holyoke St, Quincy, MA 02171, USA""",42.281397,-71.027109,"""ROOFTOP""",1994-08-02 00:00:00,3,2014_leak
39278,"""68 Aberdeen Rd, Quincy, MA 02171, USA""",42.295102,-71.010192,"""ROOFTOP""",1994-08-08 00:00:00,3,2014_leak
41651,"""37 Atkins Ave, Lynn, MA 01904, USA""",42.486082,-70.94902,"""ROOFTOP""",1994-08-11 00:00:00,3,2014_leak
41650,"""7 Falls St, Lynn, MA 01902, USA""",42.48287,-70.934088,"""ROOFTOP""",1994-08-11 00:00:00,3,2014_leak
41480,"""24 Leicester Rd, Marblehead, MA 01945, USA""",42.486609,-70.88084,"""ROOFTOP""",1994-09-09 00:00:00,3,2014_leak
41422,"""4 Tully Rd, Marblehead, MA 01945, USA""",42.4936,-70.879688,"""ROOFTOP""",1994-09-16 00:00:00,3,2014_leak
42174,"""276 Dale St, Waltham, MA 02451, USA""",42.385962,-71.249442,"""RANGE_INTERPOLATED""",1994-09-16 00:00:00,3,2014_leak
43831,"""45 Harvey Ln, Whitman, MA 02382, USA""",42.072091,-70.941386,"""ROOFTOP""",1994-10-03 00:00:00,3,2014_leak
41036,"""Commonwealth Avenue & Berkeley St, Boston, MA 02116, USA""",42.352863,-71.073843,"""APPROXIMATE""",1994-10-11 00:00:00,3,2014_leak
41402,"""103 Central St, Peabody, MA 01960, USA""",42.53306,-70.926158,"""ROOFTOP""",1994-10-12 00:00:00,3,2014_leak
38877,"""24 Vassar St, Leominster, MA 01453, USA""",42.536102,-71.773531,"""RANGE_INTERPOLATED""",1994-10-21 00:00:00,3,2014_leak
41642,"""284 Chatham St, Lynn, MA 01902, USA""",42.475166,-70.938854,"""ROOFTOP""",1994-10-24 00:00:00,3,2014_leak
42249,"""9 Audubon Rd, Wakefield, MA 01880, USA""",42.515601,-71.039112,"""ROOFTOP""",1994-11-12 00:00:00,3,2014_leak
93459,"""15 West St, Leominster, MA 01453, USA""",42.526848,-71.760178,"""ROOFTOP""",1994-11-21 00:00:00,3,2014_leak
43133,"""921 Main St, Malden, MA 02148, USA""",42.436439,-71.067413,"""ROOFTOP""",1994-12-19 00:00:00,3,2014_leak
39970,"""14 Warren Pl, Boston, MA 02119, USA""",42.328032,-71.081851,"""ROOFTOP""",1994-12-22 00:00:00,3,2014_leak
39539,"""250 Blue Hill Avenue, Milton, MA 02186, USA""",42.256726,-71.098393,"""ROOFTOP""",1995-01-05 00:00:00,3,2014_leak
43183,"""33 Winter St, Lincoln, MA 01773, USA""",42.41881,-71.287405,"""ROOFTOP""",1995-01-09 00:00:00,3,2014_leak
93483,"""15 Kennedy Park, Woburn, MA 01801, USA""",42.475969,-71.175851,"""ROOFTOP""",1995-01-17 00:00:00,3,2014_leak
42039,"""Highland Ave & Hancock St, Winchester, MA 01890, USA""",42.456724,-71.127445,"""APPROXIMATE""",1995-01-23 00:00:00,3,2014_leak
42686,"""W Wyoming Ave & Ravine Rd, Melrose, MA 02176, USA""",42.454881,-71.078919,"""APPROXIMATE""",1995-01-26 00:00:00,3,2014_leak
93507,"""Linden Ave & Crosman Ave, Swampscott, MA 01907, USA""",42.482055,-70.892406,"""APPROXIMATE""",1995-02-17 00:00:00,3,2014_leak
39260,"""Fenno St & Thornton St, Quincy, MA 02170, USA""",42.268233,-71.00757,"""APPROXIMATE""",1995-03-06 00:00:00,3,2014_leak
43829,"""62 Hogg Memorial Dr, Whitman, MA 02382, USA""",42.072142,-70.954039,"""ROOFTOP""",1995-03-29 00:00:00,3,2014_leak
94351,"""384 Broad St, Weymouth, MA 02188, USA""",42.218222,-70.946787,"""ROOFTOP""",1995-04-10 00:00:00,3,2014_leak
41112,"""15 Beach St, Quincy, MA 02170, USA""",42.268406,-71.015736,"""ROOFTOP""",1995-04-12 00:00:00,3,2014_leak
39783,"""336 Plain St, Braintree, MA 02184, USA""",42.198878,-70.990729,"""ROOFTOP""",1995-04-12 00:00:00,3,2014_leak
43187,"""19 Trapelo Rd, Lincoln, MA 01773, USA""",42.425144,-71.300173,"""ROOFTOP""",1995-04-27 00:00:00,3,2014_leak
41682,"""510 Eastern Ave, Lynn, MA 01902, USA""",42.481192,-70.936627,"""ROOFTOP""",1995-05-04 00:00:00,3,2014_leak
39680,"""371 Walnut St, Brookline, MA 02445, USA""",42.32762,-71.129651,"""ROOFTOP""",1995-05-09 00:00:00,3,2014_leak
94370,"""72 Pine Haven Cir, Rockland, MA 02370, USA""",42.168132,-70.89411,"""RANGE_INTERPOLATED""",1995-05-09 00:00:00,3,2014_leak
94376,"""94 Upland Rd, Brookline, MA 02445, USA""",42.328504,-71.121041,"""ROOFTOP""",1995-05-09 00:00:00,3,2014_leak
40405,"""40 Lonsdale St, Dorchester Center, MA 02124, USA""",42.29056,-71.061342,"""ROOFTOP""",1995-05-16 00:00:00,3,2014_leak
94385,"""109 Msgr Patrick J Lydon Way, Boston, MA 02124, USA""",42.2894,-71.057636,"""ROOFTOP""",1995-05-16 00:00:00,3,2014_leak
93598,"""11 Desota St, Saugus, MA 01906, USA""",42.475788,-71.004412,"""RANGE_INTERPOLATED""",1995-05-16 00:00:00,3,2014_leak
94390,"""Beechwood St, Cohasset, MA 02025, USA""",42.219357,-70.808219,"""GEOMETRIC_CENTER""",1995-05-17 00:00:00,3,2014_leak
39609,"""Pleasant St & Cushing Rd, Cohasset, MA 02025, USA""",42.239309,-70.805556,"""APPROXIMATE""",1995-05-18 00:00:00,3,2014_leak
41701,"""15 Gilbert St, Lynn, MA 01902, USA""",42.480963,-70.934609,"""ROOFTOP""",1995-05-18 00:00:00,3,2014_leak
93609,"""Adams Ave & Oak St, Saugus, MA 01906, USA""",42.455651,-71.013396,"""APPROXIMATE""",1995-05-23 00:00:00,3,2014_leak
41732,"""185 Lowell St, Lynnfield, MA 01940, USA""",42.55335,-71.040693,"""ROOFTOP""",1995-05-25 00:00:00,3,2014_leak
43672,"""14 Paul Revere Rd, Bedford, MA 01730, USA""",42.497267,-71.281179,"""RANGE_INTERPOLATED""",1995-05-25 00:00:00,3,2014_leak
94414,"""30 Colella Rd, Newton, MA 02459, USA""",42.291745,-71.186655,"""ROOFTOP""",1995-06-07 00:00:00,3,2014_leak
40930,"""31 Stuart St, Boston, MA 02116, USA""",42.351218,-71.063872,"""ROOFTOP""",1995-06-08 00:00:00,3,2014_leak
94424,"""55 Stuart St, Boston, MA 02116, USA""",42.351103,-71.064401,"""RANGE_INTERPOLATED""",1995-06-12 00:00:00,3,2014_leak
39168,"""65 Livermore Rd, Wellesley Hills, MA 02481, USA""",42.304266,-71.269184,"""ROOFTOP""",1995-06-14 00:00:00,3,2014_leak
93664,"""North St & Cushing St, Salem, MA 01970, USA""",42.531484,-70.910444,"""APPROXIMATE""",1995-06-15 00:00:00,3,2014_leak
39584,"""126 Reedsdale Rd, Milton, MA 02186, USA""",42.254387,-71.076845,"""ROOFTOP""",1995-06-26 00:00:00,3,2014_leak
43188,"""101 Goldsmith St, Littleton, MA 01460, USA""",42.54089,-71.470281,"""ROOFTOP""",1995-06-27 00:00:00,3,2014_leak
42222,"""1191 Main St, Waltham, MA 02451, USA""",42.376459,-71.260854,"""RANGE_INTERPOLATED""",1995-06-29 00:00:00,3,2014_leak
39297,"""143 Fenno St, Quincy, MA 02170, USA""",42.267189,-71.008443,"""ROOFTOP""",1995-07-03 00:00:00,3,2014_leak
43355,"""45 Highland Ave, Everett, MA 02149, USA""",42.416116,-71.056309,"""ROOFTOP""",1995-07-06 00:00:00,3,2014_leak
40498,"""Evans St & Dyer St, Boston, MA 02124, USA""",42.282586,-71.079369,"""APPROXIMATE""",1995-07-07 00:00:00,3,2014_leak
42571,"""1418 Commonwealth Avenue, Newton, MA 02465, USA""",42.337105,-71.224807,"""RANGE_INTERPOLATED""",1995-07-07 00:00:00,3,2014_leak
42211,"""79 Marlborough Rd, Waltham, MA 02452, USA""",42.396048,-71.201987,"""RANGE_INTERPOLATED""",1995-07-11 00:00:00,3,2014_leak
40566,"""Callender St & Don St, Boston, MA 02124, USA""",42.287736,-71.086381,"""APPROXIMATE""",1995-07-13 00:00:00,3,2014_leak
40510,"""24 Algonquin St, Dorchester Center, MA 02124, USA""",42.297516,-71.074211,"""ROOFTOP""",1995-07-26 00:00:00,3,2014_leak
43363,"""121 Irving St, Everett, MA 02149, USA""",42.407168,-71.04436,"""ROOFTOP""",1995-07-26 00:00:00,3,2014_leak
39043,"""11 Castle Rd, East Weymouth, MA 02189, USA""",42.20912,-70.943101,"""ROOFTOP""",1995-07-26 00:00:00,3,2014_leak
40509,"""Millet St & Wheatland Ave, Boston, MA 02124, USA""",42.29277,-71.076612,"""APPROXIMATE""",1995-07-26 00:00:00,3,2014_leak
94509,"""6-8 Lane Park, Brighton, MA 02135, USA""",42.341907,-71.15926,"""ROOFTOP""",1995-07-31 00:00:00,3,2014_leak
40636,"""1208 Dorchester Ave, Boston, MA 02125, USA""",42.309259,-71.057725,"""ROOFTOP""",1995-08-10 00:00:00,3,2014_leak
40021,"""4057 Washington St, Roslindale, MA 02131, USA""",42.291056,-71.12364,"""ROOFTOP""",1995-08-14 00:00:00,3,2014_leak
94539,"""Boston Post Rd, Weston, MA 02493, USA""",42.367013,-71.302228,"""GEOMETRIC_CENTER""",1995-08-15 00:00:00,3,2014_leak
94564,"""973 Blue Hill Avenue, Boston, MA 02124, USA""",42.291204,-71.089526,"""ROOFTOP""",1995-08-21 00:00:00,3,2014_leak
40709,"""57-59 Virginia St, Dorchester, MA 02125, USA""",42.314988,-71.069114,"""ROOFTOP""",1995-08-22 00:00:00,3,2014_leak
40719,"""555-559 Dudley St, Boston, MA 02125, USA""",42.321169,-71.072488,"""ROOFTOP""",1995-08-24 00:00:00,3,2014_leak
40725,"""706-714 Dudley St, Dorchester, MA 02125, USA""",42.318462,-71.067787,"""ROOFTOP""",1995-08-24 00:00:00,3,2014_leak
40720,"""591 Dudley St, Dorchester, MA 02125, USA""",42.320296,-71.071813,"""ROOFTOP""",1995-08-24 00:00:00,3,2014_leak
40726,"""14-16 Jerome St, Dorchester, MA 02125, USA""",42.314875,-71.064072,"""ROOFTOP""",1995-08-24 00:00:00,3,2014_leak
40661,"""61a Dix St, Boston, MA 02122, USA""",42.295635,-71.058689,"""ROOFTOP""",1995-08-30 00:00:00,3,2014_leak
38886,"""23 Mill St, Leominster, MA 01453, USA""",42.531814,-71.754492,"""ROOFTOP""",1995-09-07 00:00:00,3,2014_leak
40684,"""2 Sargent St, Dorchester, MA 02125, USA""",42.317321,-71.074219,"""ROOFTOP""",1995-09-07 00:00:00,3,2014_leak
40596,"""70 Mayfield St, Dorchester, MA 02125, USA""",42.316674,-71.060025,"""ROOFTOP""",1995-09-12 00:00:00,3,2014_leak
38909,"""84 Union St, Leominster, MA 01453, USA""",42.52006,-71.760546,"""ROOFTOP""",1995-09-12 00:00:00,3,2014_leak
40593,"""Dorchester Ave & Mayfield St, Boston, MA 02125, USA""",42.316329,-71.056682,"""APPROXIMATE""",1995-09-12 00:00:00,3,2014_leak
94636,"""Wollaston Terrace, Boston, MA 02124, USA""",42.28669,-71.083048,"""GEOMETRIC_CENTER""",1995-09-14 00:00:00,3,2014_leak
39737,"""247 Shaw St, Braintree, MA 02184, USA""",42.227421,-70.975985,"""ROOFTOP""",1995-09-29 00:00:00,3,2014_leak
41058,"""Cambridge St & Lynde St, Boston, MA 02114, USA""",42.361271,-71.06439,"""APPROXIMATE""",1995-09-29 00:00:00,3,2014_leak
43161,"""Salem St & Bellvale St, Malden, MA 02148, USA""",42.434683,-71.031668,"""APPROXIMATE""",1995-10-10 00:00:00,3,2014_leak
38984,"""Water St & Chestnut St, Clinton, MA 01510, USA""",42.420379,-71.680141,"""APPROXIMATE""",1995-10-18 00:00:00,3,2014_leak
42258,"""333 Lincoln St, Waltham, MA 02451, USA""",42.399663,-71.246115,"""RANGE_INTERPOLATED""",1995-11-06 00:00:00,3,2014_leak
93793,"""26 Old Tavern Rd, Wayland, MA 01778, USA""",42.32026,-71.348414,"""ROOFTOP""",1995-11-07 00:00:00,3,2014_leak
96528,"""377 Ralph Talbot St, South Weymouth, MA 02190, USA""",42.178518,-70.931275,"""ROOFTOP""",1995-12-20 00:00:00,3,2014_leak
95558,"""137 Main St, Malden, MA 02148, USA""",42.419784,-71.065936,"""RANGE_INTERPOLATED""",1996-01-14 00:00:00,3,2014_leak
96297,"""84 Lynnfield St, Peabody, MA 01960, USA""",42.516506,-70.951341,"""ROOFTOP""",1996-01-24 00:00:00,3,2014_leak
97020,"""10 Pequot Rd, Peabody, MA 01960, USA""",42.557911,-71.031727,"""ROOFTOP""",1996-03-04 00:00:00,3,2014_leak
100193,"""9 Carter St, Newton, MA 02460, USA""",42.351858,-71.199304,"""RANGE_INTERPOLATED""",1996-03-15 00:00:00,3,2014_leak
97390,"""143 Main St, Reading, MA 01867, USA""",42.508794,-71.103865,"""ROOFTOP""",1996-04-17 00:00:00,3,2014_leak
98018,"""Harbor View Ave & Grand View Rd, Weymouth, MA 02191, USA""",42.246589,-70.950481,"""APPROXIMATE""",1996-04-19 00:00:00,3,2014_leak
98053,"""591 Pond St, South Weymouth, MA 02190, USA""",42.150117,-70.953914,"""ROOFTOP""",1996-04-23 00:00:00,3,2014_leak
100709,"""949 Centre St, Newton, MA 02459, USA""",42.339813,-71.192781,"""RANGE_INTERPOLATED""",1996-04-26 00:00:00,3,2014_leak
97810,"""6 Shackford Rd, Reading, MA 01867, USA""",42.515593,-71.100097,"""RANGE_INTERPOLATED""",1996-04-30 00:00:00,3,2014_leak
97813,"""323 South St, Reading, MA 01867, USA""",42.505233,-71.106959,"""ROOFTOP""",1996-05-01 00:00:00,3,2014_leak
97814,"""362 South St, Reading, MA 01867, USA""",42.505496,-71.104333,"""RANGE_INTERPOLATED""",1996-05-01 00:00:00,3,2014_leak
97866,"""41 Prescott St, Reading, MA 01867, USA""",42.520541,-71.109999,"""RANGE_INTERPOLATED""",1996-05-07 00:00:00,3,2014_leak
97868,"""171 Prescott St, Reading, MA 01867, USA""",42.517713,-71.116522,"""RANGE_INTERPOLATED""",1996-05-07 00:00:00,3,2014_leak
98553,"""104 Middle St, Leominster, MA 01453, USA""",42.521107,-71.751992,"""RANGE_INTERPOLATED""",1996-05-08 00:00:00,3,2014_leak
98148,"""109 Bartlett St, Somerville, MA 02145, USA""",42.395289,-71.100604,"""ROOFTOP""",1996-05-09 00:00:00,3,2014_leak
98251,"""246 Woburn St, Reading, MA 01867, USA""",42.519756,-71.116605,"""RANGE_INTERPOLATED""",1996-05-14 00:00:00,3,2014_leak
98477,"""238 Lynnfield St, Lynn, MA 01904, USA""",42.493454,-70.971779,"""ROOFTOP""",1996-05-15 00:00:00,3,2014_leak
98741,"""38 Robinson Ave, Braintree, MA 02184, USA""",42.212469,-71.006349,"""ROOFTOP""",1996-05-16 00:00:00,3,2014_leak
100143,"""233 Broadway, Saugus, MA 01906, USA""",42.494973,-71.016272,"""RANGE_INTERPOLATED""",1996-05-23 00:00:00,3,2014_leak
98783,"""62 Wyman St, Jamaica Plain, MA 02130, USA""",42.320678,-71.105184,"""ROOFTOP""",1996-05-23 00:00:00,3,2014_leak
98781,"""20 Kingsboro Park, Boston, MA 02130, USA""",42.318054,-71.111007,"""ROOFTOP""",1996-05-24 00:00:00,3,2014_leak
98865,"""28 Stone Ave, Winchester, MA 01890, USA""",42.461476,-71.124887,"""ROOFTOP""",1996-05-28 00:00:00,3,2014_leak
99022,"""63 Walnut St, Leominster, MA 01453, USA""",42.531221,-71.759614,"""RANGE_INTERPOLATED""",1996-05-29 00:00:00,3,2014_leak
98893,"""31 Walden St, Boston, MA 02130, USA""",42.324753,-71.104377,"""ROOFTOP""",1996-05-29 00:00:00,3,2014_leak
99212,"""11 Sherwood Rd, Winchester, MA 01890, USA""",42.439002,-71.130313,"""ROOFTOP""",1996-06-05 00:00:00,3,2014_leak
99871,"""131 Atlantic Ave, Marblehead, MA 01945, USA""",42.494753,-70.862167,"""ROOFTOP""",1996-06-07 00:00:00,3,2014_leak
99866,"""19 Cleveland Rd, Marblehead, MA 01945, USA""",42.484906,-70.867221,"""ROOFTOP""",1996-06-07 00:00:00,3,2014_leak
101032,"""Atlantic Ave & Meadow Ln, Cohasset, MA 02025, USA""",42.25005,-70.7925,"""APPROXIMATE""",1996-06-10 00:00:00,3,2014_leak
100700,"""Waverley Ave & Church St, Newton, MA 02458, USA""",42.350827,-71.179981,"""APPROXIMATE""",1996-06-10 00:00:00,3,2014_leak
99449,"""Mystic Ave & Cutting St, Winchester, MA 01890, USA""",42.44731,-71.137098,"""APPROXIMATE""",1996-06-10 00:00:00,3,2014_leak
99842,"""Ware Ln & Rose Ave, Marblehead, MA 01945, USA""",42.486736,-70.883456,"""APPROXIMATE""",1996-06-11 00:00:00,3,2014_leak
100268,"""22 Philip Rd, Lexington, MA 02421, USA""",42.423256,-71.215761,"""ROOFTOP""",1996-06-12 00:00:00,3,2014_leak
99450,"""29 East St, Winchester, MA 01890, USA""",42.468622,-71.136059,"""ROOFTOP""",1996-06-12 00:00:00,3,2014_leak
99513,"""Williams St & Stedman St, Boston, MA 02130, USA""",42.305285,-71.106184,"""APPROXIMATE""",1996-06-13 00:00:00,3,2014_leak
99520,"""55 Glen Rd, Boston, MA 02130, USA""",42.308636,-71.101681,"""RANGE_INTERPOLATED""",1996-06-14 00:00:00,2,2014_leak
99727,"""39 Swanton St, Winchester, MA 01890, USA""",42.459406,-71.131011,"""ROOFTOP""",1996-06-17 00:00:00,3,2014_leak
99725,"""Cambridge St & Calumet Rd, Winchester, MA 01890, USA""",42.447346,-71.154147,"""APPROXIMATE""",1996-06-17 00:00:00,3,2014_leak
99746,"""1705 Commonwealth Avenue, Boston, MA 02135, USA""",42.341962,-71.147441,"""ROOFTOP""",1996-06-17 00:00:00,3,2014_leak
100696,"""Tremont St & Marlboro St, Newton, MA 02458, USA""",42.352441,-71.175666,"""APPROXIMATE""",1996-06-18 00:00:00,3,2014_leak
100534,"""81 Keystone Dr, Leominster, MA 01453, USA""",42.551758,-71.745631,"""RANGE_INTERPOLATED""",1996-06-20 00:00:00,3,2014_leak
100038,"""94 Church St, Winchester, MA 01890, USA""",42.448561,-71.147848,"""ROOFTOP""",1996-06-21 00:00:00,3,2014_leak
100109,"""1786 Trapelo Rd, Waltham, MA 02451, USA""",42.419233,-71.266891,"""ROOFTOP""",1996-06-21 00:00:00,3,2014_leak
100650,"""114 Fletcher Rd, Belmont, MA 02478, USA""",42.4032,-71.18084,"""ROOFTOP""",1996-06-27 00:00:00,3,2014_leak
100804,"""Cabot St & Westchester Rd, Newton, MA 02458, USA""",42.347898,-71.197522,"""APPROXIMATE""",1996-06-27 00:00:00,3,2014_leak
100401,"""8 Salisbury St, Winchester, MA 01890, USA""",42.44855,-71.153471,"""RANGE_INTERPOLATED""",1996-06-27 00:00:00,3,2014_leak
228961,"""Madison St & Bell Rock St, Malden, MA 02148, USA""",42.417128,-71.069413,"""APPROXIMATE""",1996-06-28 00:00:00,3,2014_leak
100786,"""25 South St, Jamaica Plain, MA 02130, USA""",42.308892,-71.115871,"""ROOFTOP""",1996-07-01 00:00:00,3,2014_leak
100795,"""105 Walk Hill St, Boston, MA 02130, USA""",42.292362,-71.113022,"""ROOFTOP""",1996-07-02 00:00:00,3,2014_leak
100579,"""Main St & Chestnut St, Winchester, MA 01890, USA""",42.444887,-71.134592,"""APPROXIMATE""",1996-07-03 00:00:00,3,2014_leak
100862,"""2nd St & Cabot St, Everett, MA 02149, USA""",42.403734,-71.054662,"""APPROXIMATE""",1996-07-09 00:00:00,3,2014_leak
101135,"""304 Marsh St, Belmont, MA 02478, USA""",42.406374,-71.194299,"""ROOFTOP""",1996-07-10 00:00:00,3,2014_leak
101282,"""Broadway & Bow St, Saugus, MA 01906, USA""",42.491679,-71.016459,"""APPROXIMATE""",1996-07-17 00:00:00,3,2014_leak
101709,"""Samoset Ave & Malta St, Hull, MA 02045, USA""",42.280806,-70.869806,"""APPROXIMATE""",1996-07-18 00:00:00,3,2014_leak
101768,"""210 Concord Rd, Sudbury, MA 01776, USA""",42.375734,-71.414959,"""ROOFTOP""",1996-07-18 00:00:00,3,2014_leak
102034,"""40 Walnut St, Lynnfield, MA 01940, USA""",42.527177,-71.034126,"""ROOFTOP""",1996-07-22 00:00:00,3,2014_leak
101817,"""91 Newport Rd, Hull, MA 02045, USA""",42.279937,-70.874962,"""RANGE_INTERPOLATED""",1996-07-23 00:00:00,3,2014_leak
101641,"""60 Suffolk St, Chelsea, MA 02150, USA""",42.387397,-71.03344,"""ROOFTOP""",1996-07-25 00:00:00,3,2014_leak
101854,"""59 Abington St, Hingham, MA 02043, USA""",42.168622,-70.920636,"""ROOFTOP""",1996-07-30 00:00:00,3,2014_leak
103178,"""292 Spring St, Rockland, MA 02370, USA""",42.111838,-70.911385,"""ROOFTOP""",1996-08-07 00:00:00,3,2014_leak
103183,"""320 Levin Rd, Rockland, MA 02370, USA""",42.11368,-70.897686,"""RANGE_INTERPOLATED""",1996-08-07 00:00:00,3,2014_leak
103179,"""214 Beech St, Rockland, MA 02370, USA""",42.103407,-70.909155,"""ROOFTOP""",1996-08-07 00:00:00,3,2014_leak
103175,"""80 Beech St, Rockland, MA 02370, USA""",42.107184,-70.910232,"""RANGE_INTERPOLATED""",1996-08-07 00:00:00,3,2014_leak
103181,"""41 Pierce Rd, Rockland, MA 02370, USA""",42.121073,-70.899004,"""RANGE_INTERPOLATED""",1996-08-07 00:00:00,3,2014_leak
103180,"""354 Spring St, Rockland, MA 02370, USA""",42.110143,-70.910872,"""ROOFTOP""",1996-08-07 00:00:00,3,2014_leak
105445,"""118 Albion St, Rockland, MA 02370, USA""",42.119985,-70.909528,"""ROOFTOP""",1996-08-09 00:00:00,3,2014_leak
102872,"""169 Commercial St, Braintree, MA 02184, USA""",42.221185,-70.975004,"""ROOFTOP""",1996-08-09 00:00:00,3,2014_leak
105458,"""102 Plain St, Braintree, MA 02184, USA""",42.196665,-71.000229,"""ROOFTOP""",1996-08-14 00:00:00,3,2014_leak
103165,"""344 Centre Ave, Rockland, MA 02370, USA""",42.112975,-70.926454,"""ROOFTOP""",1996-08-14 00:00:00,3,2014_leak
103160,"""32 Grove St, Rockland, MA 02370, USA""",42.126211,-70.918417,"""ROOFTOP""",1996-08-15 00:00:00,3,2014_leak
103161,"""23 Grove St, Rockland, MA 02370, USA""",42.126077,-70.918122,"""RANGE_INTERPOLATED""",1996-08-15 00:00:00,3,2014_leak
103148,"""Pearl St, Braintree, MA 02184, USA""",42.203121,-70.995245,"""GEOMETRIC_CENTER""",1996-08-15 00:00:00,3,2014_leak
105491,"""12 E Water St, Rockland, MA 02370, USA""",42.127555,-70.914413,"""RANGE_INTERPOLATED""",1996-08-16 00:00:00,3,2014_leak
102967,"""Whittier St, Lynn, MA 01902, USA""",42.466826,-70.953133,"""GEOMETRIC_CENTER""",1996-08-21 00:00:00,3,2014_leak
105503,"""139 Beal St, Rockland, MA 02370, USA""",42.134119,-70.901126,"""ROOFTOP""",1996-08-23 00:00:00,3,2014_leak
103515,"""65 Webster St, Arlington, MA 02474, USA""",42.415667,-71.144945,"""ROOFTOP""",1996-08-26 00:00:00,3,2014_leak
105662,"""1660 Washington St, Braintree, MA 02184, USA""",42.182133,-71.012734,"""ROOFTOP""",1996-08-26 00:00:00,3,2014_leak
102977,"""19 Abbott St, Lynn, MA 01905, USA""",42.46229,-70.971959,"""ROOFTOP""",1996-08-26 00:00:00,3,2014_leak
103050,"""41 Callender St, Boston, MA 02124, USA""",42.288986,-71.080393,"""RANGE_INTERPOLATED""",1996-08-27 00:00:00,3,2014_leak
103289,"""28 Congress St, Stoneham, MA 02180, USA""",42.47621,-71.104456,"""ROOFTOP""",1996-08-29 00:00:00,3,2014_leak
105670,"""727 Union St, Rockland, MA 02370, USA""",42.14172,-70.920007,"""RANGE_INTERPOLATED""",1996-08-29 00:00:00,3,2014_leak
108652,"""37 Vine St, Lynn, MA 01905, USA""",42.461349,-70.959445,"""ROOFTOP""",1996-08-29 00:00:00,3,2014_leak
103136,"""89 Green St, Rockland, MA 02370, USA""",42.132525,-70.929975,"""ROOFTOP""",1996-08-30 00:00:00,3,2014_leak
103276,"""75 Elm St, Woburn, MA 01801, USA""",42.506956,-71.161533,"""ROOFTOP""",1996-08-30 00:00:00,3,2014_leak
105416,"""20 Tremont St, Weymouth, MA 02188, USA""",42.220883,-70.965901,"""ROOFTOP""",1996-09-03 00:00:00,3,2014_leak
118940,"""Dudley, MA, USA""",42.043366,-71.927603,"""APPROXIMATE""",1996-09-04 00:00:00,3,2014_leak
105410,"""76 Phillips St, Weymouth, MA 02188, USA""",42.21948,-70.963185,"""ROOFTOP""",1996-09-04 00:00:00,3,2014_leak
103615,"""55 W Broadway, Boston, MA 02127, USA""",42.341941,-71.056131,"""ROOFTOP""",1996-09-04 00:00:00,3,2014_leak
103717,"""Oxford St & High St, Lynn, MA 01902, USA""",42.466494,-70.945196,"""APPROXIMATE""",1996-09-04 00:00:00,3,2014_leak
105380,"""31 Presidents Rd, Weymouth, MA 02188, USA""",42.224884,-70.954711,"""ROOFTOP""",1996-09-05 00:00:00,3,2014_leak
103645,"""106 Cummings Park Dr, Woburn, MA 01801, USA""",42.499236,-71.125141,"""RANGE_INTERPOLATED""",1996-09-05 00:00:00,3,2014_leak
105387,"""68 Wilson Ave, Weymouth, MA 02188, USA""",42.223809,-70.953073,"""ROOFTOP""",1996-09-05 00:00:00,3,2014_leak
104284,"""666 Walnut St, Lynn, MA 01905, USA""",42.474052,-70.993931,"""ROOFTOP""",1996-09-05 00:00:00,3,2014_leak
103643,"""645 Hammond St, Chestnut Hill, MA 02467, USA""",42.322171,-71.163112,"""ROOFTOP""",1996-09-05 00:00:00,3,2014_leak
103735,"""265 Park St, Dorchester Center, MA 02124, USA""",42.297257,-71.066035,"""ROOFTOP""",1996-09-05 00:00:00,3,2014_leak
104282,"""599 Walnut St, Lynn, MA 01905, USA""",42.474232,-70.990725,"""ROOFTOP""",1996-09-05 00:00:00,3,2014_leak
110503,"""64 Wilson Ave, Weymouth, MA 02188, USA""",42.223963,-70.952952,"""ROOFTOP""",1996-09-05 00:00:00,3,2014_leak
103916,"""E Main St, Webster, MA 01570, USA""",42.05826,-71.867779,"""GEOMETRIC_CENTER""",1996-09-06 00:00:00,3,2014_leak
103964,"""276 Clyde St, Chestnut Hill, MA 02467, USA""",42.313787,-71.142431,"""RANGE_INTERPOLATED""",1996-09-06 00:00:00,3,2014_leak
105375,"""16 Coolidge Ave, Weymouth, MA 02188, USA""",42.224164,-70.954184,"""ROOFTOP""",1996-09-06 00:00:00,3,2014_leak
103965,"""139 Newton St, Brookline, MA 02445, USA""",42.310509,-71.140621,"""RANGE_INTERPOLATED""",1996-09-06 00:00:00,3,2014_leak
105389,"""399 Commercial St, Weymouth, MA 02188, USA""",42.22468,-70.95618,"""ROOFTOP""",1996-09-06 00:00:00,3,2014_leak
103783,"""31 Walnut St, Arlington, MA 02476, USA""",42.418663,-71.169856,"""RANGE_INTERPOLATED""",1996-09-06 00:00:00,3,2014_leak
105390,"""327 Commercial St, Weymouth, MA 02188, USA""",42.224346,-70.959536,"""ROOFTOP""",1996-09-06 00:00:00,3,2014_leak
103979,"""6 Cushing St, Hull, MA 02045, USA""",42.304483,-70.909671,"""RANGE_INTERPOLATED""",1996-09-06 00:00:00,3,2014_leak
105645,"""234 Pond St, Rockland, MA 02370, USA""",42.160362,-70.890091,"""RANGE_INTERPOLATED""",1996-09-09 00:00:00,3,2014_leak
103977,"""830 Nantasket Ave, Hull, MA 02045, USA""",42.303698,-70.884152,"""RANGE_INTERPOLATED""",1996-09-09 00:00:00,3,2014_leak
104328,"""417 Lynnway, Lynn, MA 01901, USA""",42.456723,-70.952888,"""ROOFTOP""",1996-09-09 00:00:00,3,2014_leak
103933,"""329 Montvale Ave, Woburn, MA 01801, USA""",42.479614,-71.119016,"""RANGE_INTERPOLATED""",1996-09-09 00:00:00,3,2014_leak
103975,"""1745 Commercial St, Weymouth, MA 02189, USA""",42.222425,-70.917143,"""RANGE_INTERPOLATED""",1996-09-10 00:00:00,3,2014_leak
103972,"""88 Saning Rd, Weymouth, MA 02191, USA""",42.23713,-70.946718,"""ROOFTOP""",1996-09-10 00:00:00,3,2014_leak
104287,"""5 Margin St, Lynn, MA 01905, USA""",42.458208,-70.976708,"""ROOFTOP""",1996-09-11 00:00:00,3,2014_leak
104003,"""10 Sutton St, Weymouth, MA 02188, USA""",42.222845,-70.94611,"""ROOFTOP""",1996-09-11 00:00:00,3,2014_leak
104136,"""Burke St, Boston, MA 02120, USA""",42.337248,-71.085228,"""GEOMETRIC_CENTER""",1996-09-12 00:00:00,3,2014_leak
105628,"""122 Webster St, Rockland, MA 02370, USA""",42.132843,-70.911773,"""RANGE_INTERPOLATED""",1996-09-12 00:00:00,3,2014_leak
104026,"""58 Sears Ave, Melrose, MA 02176, USA""",42.4671,-71.073873,"""ROOFTOP""",1996-09-12 00:00:00,3,2014_leak
104029,"""40 Warwick Rd, Melrose, MA 02176, USA""",42.465799,-71.074252,"""ROOFTOP""",1996-09-12 00:00:00,3,2014_leak
104190,"""12 Greenwood Ln, Acton, MA 01720, USA""",42.491916,-71.431236,"""ROOFTOP""",1996-09-12 00:00:00,3,2014_leak
104011,"""Ivy St & Essex St, Brookline, MA 02446, USA""",42.347571,-71.111652,"""APPROXIMATE""",1996-09-12 00:00:00,3,2014_leak
104742,"""133 Lynnfield St, Lynn, MA 01904, USA""",42.48855,-70.965934,"""ROOFTOP""",1996-09-16 00:00:00,3,2014_leak
104202,"""1658 Beacon St, Brookline, MA 02445, USA""",42.339114,-71.136823,"""RANGE_INTERPOLATED""",1996-09-16 00:00:00,3,2014_leak
105469,"""12 Hanian Dr, Weymouth, MA 02189, USA""",42.227522,-70.933558,"""RANGE_INTERPOLATED""",1996-09-19 00:00:00,3,2014_leak
105538,"""21 Putnam St, Weymouth, MA 02189, USA""",42.218087,-70.932031,"""ROOFTOP""",1996-09-20 00:00:00,3,2014_leak
105480,"""494 East St, East Weymouth, MA 02189, USA""",42.222815,-70.927257,"""ROOFTOP""",1996-09-24 00:00:00,3,2014_leak
104782,"""21 Winding Way, Rockland, MA 02370, USA""",42.133246,-70.920934,"""RANGE_INTERPOLATED""",1996-09-24 00:00:00,3,2014_leak
104784,"""109 Hartsuff St, Rockland, MA 02370, USA""",42.13903,-70.905012,"""RANGE_INTERPOLATED""",1996-09-24 00:00:00,3,2014_leak
105543,"""82 Vine St, Weymouth, MA 02188, USA""",42.214969,-70.96072,"""ROOFTOP""",1996-09-24 00:00:00,3,2014_leak
104453,"""1744 Columbia Rd, Boston, MA 02127, USA""",42.330455,-71.032747,"""ROOFTOP""",1996-09-24 00:00:00,3,2014_leak
105481,"""398 East St, Weymouth, MA 02189, USA""",42.225406,-70.929633,"""ROOFTOP""",1996-09-24 00:00:00,3,2014_leak
108133,"""180 North St, Weymouth, MA 02191, USA""",42.243746,-70.943761,"""RANGE_INTERPOLATED""",1996-09-25 00:00:00,3,2014_leak
105764,"""200 Lynnfield St, Lynn, MA 01904, USA""",42.490993,-70.971816,"""ROOFTOP""",1996-09-26 00:00:00,3,2014_leak
104865,"""17 Brae Rd, Weymouth, MA 02191, USA""",42.24277,-70.939561,"""ROOFTOP""",1996-09-26 00:00:00,3,2014_leak
106251,"""400 Crescent St, Waltham, MA 02453, USA""",42.362146,-71.240222,"""ROOFTOP""",1996-10-01 00:00:00,3,2014_leak
105304,"""110 Thornton St, Roxbury, MA 02119, USA""",42.323199,-71.090906,"""ROOFTOP""",1996-10-01 00:00:00,3,2014_leak
104853,"""Adams St & Centre St, Boston, MA 02122, USA""",42.295206,-71.056214,"""APPROXIMATE""",1996-10-01 00:00:00,3,2014_leak
106242,"""21 Clinton St, Waltham, MA 02453, USA""",42.367539,-71.230113,"""ROOFTOP""",1996-10-02 00:00:00,3,2014_leak
105611,"""171 Sea St, Weymouth, MA 02191, USA""",42.245288,-70.951204,"""ROOFTOP""",1996-10-02 00:00:00,3,2014_leak
106235,"""144 School St, Waltham, MA 02451, USA""",42.377933,-71.237545,"""ROOFTOP""",1996-10-03 00:00:00,3,2014_leak
105595,"""Washington St & Rockwell Ave, Milton, MA 02186, USA""",42.259401,-71.033813,"""APPROXIMATE""",1996-10-04 00:00:00,3,2014_leak
105562,"""37 King Ave, Weymouth, MA 02188, USA""",42.211924,-70.958508,"""ROOFTOP""",1996-10-07 00:00:00,3,2014_leak
108257,"""40 Artwill St, Milton, MA 02186, USA""",42.249547,-71.071497,"""ROOFTOP""",1996-10-07 00:00:00,3,2014_leak
106228,"""735 Main St, Waltham, MA 02451, USA""",42.376652,-71.239532,"""ROOFTOP""",1996-10-07 00:00:00,3,2014_leak
105839,"""215 Main St, Waltham, MA 02453, USA""",42.376953,-71.217161,"""ROOFTOP""",1996-10-08 00:00:00,3,2014_leak
106991,"""5 Barrett Rd, Peabody, MA 01960, USA""",42.53698,-70.936384,"""ROOFTOP""",1996-10-08 00:00:00,3,2014_leak
106167,"""Main St & Harding Ave, Waltham, MA 02453, USA""",42.376803,-71.21738,"""APPROXIMATE""",1996-10-08 00:00:00,3,2014_leak
108251,"""151 Highland St, Milton, MA 02186, USA""",42.247817,-71.076458,"""ROOFTOP""",1996-10-10 00:00:00,3,2014_leak
107164,"""120 Grant St, Weymouth, MA 02189, USA""",42.2189,-70.919749,"""ROOFTOP""",1996-10-10 00:00:00,3,2014_leak
108252,"""45 Frothingham St, Milton, MA 02186, USA""",42.257015,-71.077361,"""ROOFTOP""",1996-10-11 00:00:00,3,2014_leak
106008,"""897 Chestnut St, Waban, MA 02468, USA""",42.31856,-71.226102,"""RANGE_INTERPOLATED""",1996-10-11 00:00:00,3,2014_leak
108062,"""61 Joseph A Fern Ct, Weymouth, MA 02189, USA""",42.21069,-70.939493,"""RANGE_INTERPOLATED""",1996-10-15 00:00:00,3,2014_leak
108064,"""99 Lorraine St, Weymouth, MA 02189, USA""",42.206373,-70.919689,"""ROOFTOP""",1996-10-16 00:00:00,3,2014_leak
106004,"""Dale St & Totten Cir, Waltham, MA 02451, USA""",42.386042,-71.249702,"""APPROXIMATE""",1996-10-17 00:00:00,3,2014_leak
108123,"""37 Westminster Rd, Weymouth, MA 02189, USA""",42.199736,-70.933656,"""ROOFTOP""",1996-10-17 00:00:00,3,2014_leak
108700,"""203 School St, Milton, MA 02186, USA""",42.262608,-71.069711,"""ROOFTOP""",1996-10-17 00:00:00,3,2014_leak
106036,"""47 Cedar Rd, Medford, MA 02155, USA""",42.423116,-71.108713,"""RANGE_INTERPOLATED""",1996-10-17 00:00:00,3,2014_leak
105998,"""119 Dale St, Waltham, MA 02451, USA""",42.384244,-71.242227,"""RANGE_INTERPOLATED""",1996-10-17 00:00:00,3,2014_leak
106149,"""149 Park Ave, Arlington, MA 02476, USA""",42.420965,-71.182872,"""RANGE_INTERPOLATED""",1996-10-17 00:00:00,3,2014_leak
106041,"""104 Greaton Rd, West Roxbury, MA 02132, USA""",42.291613,-71.15253,"""ROOFTOP""",1996-10-18 00:00:00,3,2014_leak
106399,"""60 Mutton Ln, Weymouth, MA 02189, USA""",42.196515,-70.930153,"""ROOFTOP""",1996-10-18 00:00:00,3,2014_leak
106400,"""35 Mutton Ln, Weymouth, MA 02189, USA""",42.195614,-70.930308,"""ROOFTOP""",1996-10-18 00:00:00,3,2014_leak
108719,"""27 Briarfield Rd, Milton, MA 02186, USA""",42.264115,-71.091877,"""ROOFTOP""",1996-10-25 00:00:00,3,2014_leak
108080,"""82 Circuit Rd, Weymouth, MA 02190, USA""",42.185556,-70.937587,"""RANGE_INTERPOLATED""",1996-10-25 00:00:00,3,2014_leak
106653,"""Princeton St & Colby Rd, Peabody, MA 01960, USA""",42.541403,-70.96879,"""APPROXIMATE""",1996-10-30 00:00:00,3,2014_leak
108050,"""305 Central St, South Weymouth, MA 02190, USA""",42.167832,-70.940956,"""ROOFTOP""",1996-11-01 00:00:00,3,2014_leak
118904,"""8 Ellis Ave, Dudley, MA 01571, USA""",42.041799,-71.897364,"""RANGE_INTERPOLATED""",1996-11-01 00:00:00,3,2014_leak
108078,"""10 Abbott St, South Weymouth, MA 02190, USA""",42.158278,-70.958644,"""ROOFTOP""",1996-11-03 00:00:00,3,2014_leak
108141,"""9 Central St, Weymouth, MA 02190, USA""",42.172584,-70.953053,"""RANGE_INTERPOLATED""",1996-11-04 00:00:00,3,2014_leak
108695,"""27 Centre St, Milton, MA 02186, USA""",42.254996,-71.076173,"""ROOFTOP""",1996-11-06 00:00:00,3,2014_leak
108102,"""156 Randolph St, South Weymouth, MA 02190, USA""",42.169502,-70.964902,"""ROOFTOP""",1996-11-06 00:00:00,3,2014_leak
108098,"""279 Randolph St, South Weymouth, MA 02190, USA""",42.169155,-70.97237,"""ROOFTOP""",1996-11-06 00:00:00,3,2014_leak
108096,"""41 Hollis St, South Weymouth, MA 02190, USA""",42.16876,-70.961043,"""ROOFTOP""",1996-11-06 00:00:00,3,2014_leak
108694,"""105 Centre St, Milton, MA 02186, USA""",42.254513,-71.072735,"""ROOFTOP""",1996-11-06 00:00:00,3,2014_leak
108266,"""75 Blue Hills Pkwy, Milton, MA 02186, USA""",42.264537,-71.094168,"""RANGE_INTERPOLATED""",1996-11-07 00:00:00,3,2014_leak
108267,"""111 Blue Hills Pkwy, Milton, MA 02186, USA""",42.263238,-71.094184,"""ROOFTOP""",1996-11-07 00:00:00,3,2014_leak
120044,"""Brook Rd & Blue Hills Pkwy, Milton, MA 02186, USA""",42.26251,-71.093492,"""APPROXIMATE""",1996-11-07 00:00:00,3,2014_leak
108153,"""187 Elmer Rd, South Weymouth, MA 02190, USA""",42.143481,-70.964846,"""ROOFTOP""",1996-11-08 00:00:00,3,2014_leak
106911,"""47 W Main St, Dudley, MA 01571, USA""",42.047215,-71.892004,"""RANGE_INTERPOLATED""",1996-11-12 00:00:00,3,2014_leak
108233,"""631 Blue Hills Pkwy, Milton, MA 02186, USA""",42.245905,-71.093756,"""RANGE_INTERPOLATED""",1996-11-12 00:00:00,3,2014_leak
108028,"""1141 Pleasant St, East Weymouth, MA 02189, USA""",42.205889,-70.923905,"""ROOFTOP""",1996-11-14 00:00:00,3,2014_leak
108037,"""1203 Main St, Weymouth, MA 02190, USA""",42.163173,-70.955258,"""RANGE_INTERPOLATED""",1996-11-19 00:00:00,3,2014_leak
107268,"""63 South Ave, Burlington, MA 01803, USA""",42.482696,-71.221007,"""ROOFTOP""",1996-11-20 00:00:00,3,2014_leak
107711,"""6 Sutton Ave, Salem, MA 01970, USA""",42.535104,-70.867956,"""ROOFTOP""",1996-11-21 00:00:00,3,2014_leak
107734,"""219 Paradise Rd, Swampscott, MA 01907, USA""",42.475615,-70.913736,"""ROOFTOP""",1996-12-03 00:00:00,3,2014_leak
108291,"""117 Dimmock St, Quincy, MA 02169, USA""",42.251585,-71.009968,"""ROOFTOP""",1996-12-19 00:00:00,3,2014_leak
108000,"""7 Northfield Way, Danvers, MA 01923, USA""",42.594103,-70.95175,"""ROOFTOP""",1996-12-19 00:00:00,3,2014_leak
107993,"""101 Elliott St, Danvers, MA 01923, USA""",42.562772,-70.918033,"""ROOFTOP""",1996-12-20 00:00:00,3,2014_leak
108418,"""8 Upland Rd, Beverly, MA 01915, USA""",42.54609,-70.897918,"""ROOFTOP""",1996-12-26 00:00:00,3,2014_leak
108749,"""South St & Winthrop Park, Quincy, MA 02169, USA""",42.243816,-70.989743,"""APPROXIMATE""",1997-01-02 00:00:00,3,2014_leak
108580,"""444 Broadway, Saugus, MA 01906, USA""",42.479274,-71.02055,"""ROOFTOP""",1997-01-06 00:00:00,3,2014_leak
109184,"""44 Lind St, Quincy, MA 02169, USA""",42.259106,-70.969722,"""RANGE_INTERPOLATED""",1997-01-09 00:00:00,3,2014_leak
109190,"""Quincy, MA, USA""",42.252877,-71.00227,"""APPROXIMATE""",1997-01-10 00:00:00,3,2014_leak
108898,"""9 Atlantic Ave, Saugus, MA 01906, USA""",42.450389,-70.996776,"""RANGE_INTERPOLATED""",1997-01-14 00:00:00,3,2014_leak
108953,"""8 Harwich St, Saugus, MA 01906, USA""",42.457084,-71.003951,"""RANGE_INTERPOLATED""",1997-01-15 00:00:00,3,2014_leak
109179,"""51 Bicknell St, Quincy, MA 02169, USA""",42.251462,-70.963685,"""RANGE_INTERPOLATED""",1997-01-22 00:00:00,3,2014_leak
109276,"""Orne St & Lee St, Salem, MA 01970, USA""",42.532727,-70.901346,"""APPROXIMATE""",1997-01-31 00:00:00,3,2014_leak
109443,"""63 Fenno St, Quincy, MA 02170, USA""",42.265788,-71.011509,"""ROOFTOP""",1997-02-04 00:00:00,3,2014_leak
109444,"""71 Fenno St, Quincy, MA 02170, USA""",42.265643,-71.011111,"""ROOFTOP""",1997-02-04 00:00:00,3,2014_leak
109400,"""21 Seneca Dr, Danvers, MA 01923, USA""",42.576252,-70.943678,"""ROOFTOP""",1997-02-05 00:00:00,3,2014_leak
109724,"""335 Centre St, Quincy, MA 02169, USA""",42.234988,-71.012344,"""ROOFTOP""",1997-02-07 00:00:00,3,2014_leak
109692,"""11 Spring St, Beverly, MA 01915, USA""",42.56157,-70.869586,"""ROOFTOP""",1997-02-14 00:00:00,3,2014_leak
109711,"""21 River St, Quincy, MA 02169, USA""",42.249206,-70.984114,"""ROOFTOP""",1997-02-18 00:00:00,3,2014_leak
110009,"""9 Clark Ave, Beverly, MA 01915, USA""",42.556384,-70.873274,"""ROOFTOP""",1997-02-28 00:00:00,3,2014_leak
110149,"""22 Hosmer St, Acton, MA 01720, USA""",42.47649,-71.426232,"""ROOFTOP""",1997-03-10 00:00:00,3,2014_leak
110291,"""7 Deer Cove Rd, Swampscott, MA 01907, USA""",42.469345,-70.894833,"""ROOFTOP""",1997-03-20 00:00:00,3,2014_leak
110361,"""175 Conant St, Concord, MA 01742, USA""",42.454752,-71.403381,"""ROOFTOP""",1997-03-25 00:00:00,3,2014_leak
110519,"""814 Worcester St, Wellesley, MA 02482, USA""",42.305233,-71.308124,"""ROOFTOP""",1997-03-27 00:00:00,3,2014_leak
110556,"""469 Columbian St, Weymouth, MA 02190, USA""",42.181196,-70.970519,"""ROOFTOP""",1997-04-03 00:00:00,3,2014_leak
110623,"""Brook St & Sterling St, Clinton, MA 01510, USA""",42.423482,-71.694578,"""APPROXIMATE""",1997-04-07 00:00:00,3,2014_leak
111132,"""Quincy Shore Dr, Quincy, MA, USA""",42.278032,-71.013227,"""GEOMETRIC_CENTER""",1997-04-11 00:00:00,3,2014_leak
110783,"""Revere, MA, USA""",42.40843,-71.011995,"""APPROXIMATE""",1997-04-15 00:00:00,3,2014_leak
110929,"""355 Arlington St, Acton, MA 01720, USA""",42.473184,-71.481249,"""ROOFTOP""",1997-04-16 00:00:00,3,2014_leak
112023,"""Worcester St & Oak St, Wellesley, MA 02482, USA""",42.305948,-71.300886,"""APPROXIMATE""",1997-04-16 00:00:00,3,2014_leak
111558,"""62 Dockray St, Quincy, MA 02169, USA""",42.257594,-71.031048,"""RANGE_INTERPOLATED""",1997-04-16 00:00:00,3,2014_leak
111489,"""52 Brook Rd, Quincy, MA 02169, USA""",42.242473,-71.008543,"""ROOFTOP""",1997-04-22 00:00:00,3,2014_leak
111015,"""113 Thornton St, Revere, MA 02151, USA""",42.408929,-70.997579,"""ROOFTOP""",1997-04-23 00:00:00,3,2014_leak
111494,"""274 Common St, Quincy, MA 02169, USA""",42.244405,-71.022429,"""ROOFTOP""",1997-04-23 00:00:00,3,2014_leak
111976,"""Broad St & Erin St, Whitman, MA 02382, USA""",42.079062,-70.934698,"""APPROXIMATE""",1997-04-25 00:00:00,3,2014_leak
111112,"""5 Dover St, Medford, MA 02155, USA""",42.423,-71.121797,"""RANGE_INTERPOLATED""",1997-04-26 00:00:00,3,2014_leak
111566,"""223 Centre St, Boston, MA 02124, USA""",42.293009,-71.064121,"""RANGE_INTERPOLATED""",1997-04-28 00:00:00,3,2014_leak
111463,"""150 Essex St, Whitman, MA 02382, USA""",42.089982,-70.929046,"""RANGE_INTERPOLATED""",1997-04-30 00:00:00,3,2014_leak
111467,"""77 South Ave, Whitman, MA 02382, USA""",42.081058,-70.934526,"""RANGE_INTERPOLATED""",1997-05-01 00:00:00,3,2014_leak
112035,"""53 Simmons Ave, Whitman, MA 02382, USA""",42.09051,-70.919282,"""ROOFTOP""",1997-05-05 00:00:00,3,2014_leak
112038,"""Cranberry Rd & Strawberry Ln, Whitman, MA 02382, USA""",42.096973,-70.921517,"""APPROXIMATE""",1997-05-06 00:00:00,3,2014_leak
112039,"""154 Cranberry Rd, Whitman, MA 02382, USA""",42.097212,-70.92071,"""RANGE_INTERPOLATED""",1997-05-06 00:00:00,3,2014_leak
111996,"""Regal St, Whitman, MA 02382, USA""",42.087978,-70.916943,"""GEOMETRIC_CENTER""",1997-05-07 00:00:00,3,2014_leak
111997,"""Regal St & Apollo Rd, Whitman, MA 02382, USA""",42.086323,-70.916644,"""APPROXIMATE""",1997-05-07 00:00:00,3,2014_leak
111995,"""50 Vincent St, Whitman, MA 02382, USA""",42.087753,-70.910113,"""RANGE_INTERPOLATED""",1997-05-07 00:00:00,3,2014_leak
118930,"""34 Old Connecticut Path, Wayland, MA 01778, USA""",42.35815,-71.33667,"""RANGE_INTERPOLATED""",1997-05-08 00:00:00,3,2014_leak
112002,"""Franklin St, Whitman, MA 02382, USA""",42.062892,-70.908437,"""GEOMETRIC_CENTER""",1997-05-08 00:00:00,3,2014_leak
118590,"""River St & Carriage Dr, Acton, MA 01720, USA""",42.456971,-71.437131,"""APPROXIMATE""",1997-05-08 00:00:00,3,2014_leak
112795,"""25 Clarendon St, Quincy, MA 02169, USA""",42.245121,-70.992278,"""ROOFTOP""",1997-05-09 00:00:00,3,2014_leak
111933,"""Quincy Ave & Berry St, Quincy, MA 02169, USA""",42.244141,-70.998187,"""APPROXIMATE""",1997-05-12 00:00:00,3,2014_leak
112010,"""14 Robert Ave, Whitman, MA 02382, USA""",42.084253,-70.938517,"""RANGE_INTERPOLATED""",1997-05-12 00:00:00,3,2014_leak
112011,"""Washington St & Robert Ave, Whitman, MA 02382, USA""",42.084185,-70.938947,"""APPROXIMATE""",1997-05-12 00:00:00,3,2014_leak
111919,"""162 Washington Terrace, Whitman, MA 02382, USA""",42.090773,-70.94684,"""RANGE_INTERPOLATED""",1997-05-13 00:00:00,3,2014_leak
111920,"""Washington St & Washington Terrace, Whitman, MA 02382, USA""",42.093368,-70.944917,"""APPROXIMATE""",1997-05-13 00:00:00,3,2014_leak
120039,"""Washington St & Myrtle Ave, Whitman, MA 02382, USA""",42.084185,-70.938947,"""APPROXIMATE""",1997-05-14 00:00:00,3,2014_leak
112868,"""31 Dartmouth St, Quincy, MA 02169, USA""",42.245256,-70.991283,"""ROOFTOP""",1997-05-15 00:00:00,3,2014_leak
112773,"""294 W Squantum St, Quincy, MA 02171, USA""",42.268364,-71.036791,"""ROOFTOP""",1997-05-22 00:00:00,3,2014_leak
112389,"""High St & Old High St, Whitman, MA 02382, USA""",42.08945,-70.957844,"""APPROXIMATE""",1997-05-22 00:00:00,3,2014_leak
112260,"""837 Revere Beach Pkwy, Revere, MA 02151, USA""",42.404127,-71.014749,"""ROOFTOP""",1997-05-23 00:00:00,3,2014_leak
112373,"""43 Valley Rd, Milton, MA 02186, USA""",42.266509,-71.080759,"""ROOFTOP""",1997-05-25 00:00:00,3,2014_leak
112905,"""542 Washington St, Whitman, MA 02382, USA""",42.079673,-70.937296,"""ROOFTOP""",1997-05-28 00:00:00,3,2014_leak
113531,"""Washington St & Broad St, Whitman, MA 02382, USA""",42.078752,-70.936589,"""APPROXIMATE""",1997-05-29 00:00:00,3,2014_leak
113578,"""277 Homeland Dr, Whitman, MA 02382, USA""",42.073772,-70.957072,"""RANGE_INTERPOLATED""",1997-06-02 00:00:00,3,2014_leak
113586,"""28 Hogg Memorial Dr, Whitman, MA 02382, USA""",42.07115,-70.953751,"""RANGE_INTERPOLATED""",1997-06-02 00:00:00,3,2014_leak
113577,"""112 Homeland Dr, Whitman, MA 02382, USA""",42.073036,-70.955666,"""RANGE_INTERPOLATED""",1997-06-02 00:00:00,3,2014_leak
113056,"""2 Shetland Rd, Marblehead, MA 01945, USA""",42.488265,-70.881209,"""ROOFTOP""",1997-06-03 00:00:00,3,2014_leak
112900,"""74 Chapman St, Quincy, MA 02170, USA""",42.267286,-71.018436,"""ROOFTOP""",1997-06-05 00:00:00,3,2014_leak
112800,"""121 Greenfield Rd, Mattapan, MA 02126, USA""",42.268929,-71.103291,"""ROOFTOP""",1997-06-05 00:00:00,3,2014_leak
113617,"""N Main St & Great Brewster Trail, Cohasset, MA 02025, USA""",42.241656,-70.802837,"""APPROXIMATE""",1997-06-06 00:00:00,3,2014_leak
112993,"""Pulaski St & Buxton Ln, Peabody, MA 01960, USA""",42.536172,-70.927423,"""APPROXIMATE""",1997-06-09 00:00:00,3,2014_leak
121570,"""147 Brook St, Quincy, MA 02170, USA""",42.263322,-71.026161,"""ROOFTOP""",1997-06-09 00:00:00,3,2014_leak
113606,"""54 Pinehaven Dr, Whitman, MA 02382, USA""",42.069355,-70.946026,"""RANGE_INTERPOLATED""",1997-06-09 00:00:00,3,2014_leak
113048,"""Lowell St & Bourbon St, Peabody, MA 01960, USA""",42.54585,-70.981423,"""APPROXIMATE""",1997-06-11 00:00:00,3,2014_leak
113613,"""44 Black Rock Rd, Cohasset, MA 02025, USA""",42.261735,-70.828251,"""ROOFTOP""",1997-06-11 00:00:00,3,2014_leak
113000,"""Newbury St, Peabody, MA, USA""",42.537271,-70.988624,"""GEOMETRIC_CENTER""",1997-06-11 00:00:00,3,2014_leak
113623,"""Cohasset, MA, USA""",42.241767,-70.803654,"""APPROXIMATE""",1997-06-13 00:00:00,3,2014_leak
113637,"""Jerusalem Rd, Cohasset, MA 02025, USA""",42.263516,-70.826904,"""GEOMETRIC_CENTER""",1997-06-19 00:00:00,3,2014_leak
113636,"""739 Jerusalem Rd, Cohasset, MA 02025, USA""",42.261064,-70.839573,"""ROOFTOP""",1997-06-19 00:00:00,3,2014_leak
114058,"""916 Main St, Lynnfield, MA 01940, USA""",42.546969,-71.041277,"""ROOFTOP""",1997-06-24 00:00:00,3,2014_leak
114059,"""905 Main St, Lynnfield, MA 01940, USA""",42.546656,-71.039813,"""ROOFTOP""",1997-06-24 00:00:00,3,2014_leak
114057,"""998 Main St, Lynnfield, MA 01940, USA""",42.549857,-71.042579,"""ROOFTOP""",1997-06-24 00:00:00,3,2014_leak
113919,"""76 Farrell Rd, Lynn, MA 01905, USA""",42.465513,-70.9781,"""ROOFTOP""",1997-06-25 00:00:00,3,2014_leak
116230,"""87 E Main St, West Brookfield, MA 01585, USA""",42.235165,-72.140935,"""RANGE_INTERPOLATED""",1997-06-25 00:00:00,3,2014_leak
113766,"""King St, Cohasset, MA 02025, USA""",42.231834,-70.820765,"""GEOMETRIC_CENTER""",1997-06-27 00:00:00,3,2014_leak
113758,"""Cohasset, MA, USA""",42.241767,-70.803654,"""APPROXIMATE""",1997-06-27 00:00:00,3,2014_leak
113442,"""329-331 Freeport St, Dorchester, MA 02122, USA""",42.30126,-71.050731,"""ROOFTOP""",1997-06-30 00:00:00,3,2014_leak
113703,"""419 Beechwood St, Cohasset, MA 02025, USA""",42.214615,-70.814115,"""ROOFTOP""",1997-07-01 00:00:00,3,2014_leak
113701,"""404 Beechwood St, Cohasset, MA 02025, USA""",42.214048,-70.812886,"""ROOFTOP""",1997-07-01 00:00:00,3,2014_leak
113607,"""401 School St, Whitman, MA 02382, USA""",42.071437,-70.945097,"""RANGE_INTERPOLATED""",1997-07-01 00:00:00,3,2014_leak
113511,"""Washington St & Grant Pl, Boston, MA 02124, USA""",42.27457,-71.06993,"""APPROXIMATE""",1997-07-01 00:00:00,3,2014_leak
113676,"""Church St, Cohasset, MA 02025, USA""",42.208035,-70.818975,"""GEOMETRIC_CENTER""",1997-07-01 00:00:00,3,2014_leak
113720,"""498 Beechwood St, Cohasset, MA 02025, USA""",42.210602,-70.817692,"""ROOFTOP""",1997-07-01 00:00:00,3,2014_leak
113524,"""6 Cleveland St, Roxbury, MA 02119, USA""",42.325496,-71.080712,"""ROOFTOP""",1997-07-01 00:00:00,3,2014_leak
113717,"""463 Beechwood St, Cohasset, MA 02025, USA""",42.212678,-70.816875,"""ROOFTOP""",1997-07-01 00:00:00,3,2014_leak
113688,"""120 Doane St, Cohasset, MA 02025, USA""",42.213876,-70.822911,"""ROOFTOP""",1997-07-01 00:00:00,3,2014_leak
113507,"""185 Harvard St, Boston, MA 02124, USA""",42.29613,-71.083768,"""ROOFTOP""",1997-07-01 00:00:00,3,2014_leak
113539,"""84 Lantz Ave, Whitman, MA 02382, USA""",42.073107,-70.940897,"""ROOFTOP""",1997-07-01 00:00:00,3,2014_leak
113684,"""Egremont Rd & Cummings Rd, Boston, MA 02135, USA""",42.340887,-71.144857,"""APPROXIMATE""",1997-07-02 00:00:00,3,2014_leak
113693,"""23 Hillside Dr, Cohasset, MA 02025, USA""",42.21109,-70.815126,"""ROOFTOP""",1997-07-02 00:00:00,3,2014_leak
114766,"""26 Bay State Rd, Weston, MA 02493, USA""",42.392189,-71.285472,"""RANGE_INTERPOLATED""",1997-07-07 00:00:00,3,2014_leak
114144,"""14 Albemarle Ave, Lexington, MA 02420, USA""",42.430135,-71.193368,"""ROOFTOP""",1997-07-08 00:00:00,3,2014_leak
118579,"""419 North Ave, Weston, MA 02493, USA""",42.397938,-71.296497,"""ROOFTOP""",1997-07-09 00:00:00,3,2014_leak
114195,"""67 Otis St, Medford, MA 02155, USA""",42.419245,-71.096405,"""RANGE_INTERPOLATED""",1997-07-10 00:00:00,3,2014_leak
114205,"""Pleasant St & Federal St, Woburn, MA 01801, USA""",42.479518,-71.152974,"""APPROXIMATE""",1997-07-10 00:00:00,3,2014_leak
114309,"""16 Locust Rd, Cohasset, MA 02025, USA""",42.22746,-70.799252,"""ROOFTOP""",1997-07-12 00:00:00,3,2014_leak
114330,"""249 Temple St, Whitman, MA 02382, USA""",42.080949,-70.946475,"""ROOFTOP""",1997-07-12 00:00:00,3,2014_leak
114279,"""357 S Main St, Cohasset, MA 02025, USA""",42.225461,-70.793229,"""ROOFTOP""",1997-07-12 00:00:00,3,2014_leak
114303,"""1441 Quincy Shore Dr, Quincy, MA 02169, USA""",42.260311,-70.99585,"""ROOFTOP""",1997-07-12 00:00:00,3,2014_leak
114312,"""Chief Justice Cushing Hwy, Cohasset, MA 02025, USA""",42.228533,-70.810234,"""GEOMETRIC_CENTER""",1997-07-12 00:00:00,3,2014_leak
114319,"""117 Beechwood St, Cohasset, MA 02025, USA""",42.225639,-70.801007,"""ROOFTOP""",1997-07-12 00:00:00,3,2014_leak
114272,"""380 Atlantic Ave, Cohasset, MA 02025, USA""",42.257799,-70.804444,"""ROOFTOP""",1997-07-12 00:00:00,3,2014_leak
114275,"""431 S Main St, Cohasset, MA 02025, USA""",42.221725,-70.79123,"""ROOFTOP""",1997-07-12 00:00:00,3,2014_leak
114313,"""Chief Justice Cushing Hwy, Cohasset, MA 02025, USA""",42.228533,-70.810234,"""GEOMETRIC_CENTER""",1997-07-12 00:00:00,3,2014_leak
114328,"""529 Newport Ave, Quincy, MA 02170, USA""",42.260104,-71.014229,"""ROOFTOP""",1997-07-12 00:00:00,3,2014_leak
114310,"""26 Locust Rd, Cohasset, MA 02025, USA""",42.22859,-70.799379,"""ROOFTOP""",1997-07-12 00:00:00,3,2014_leak
114329,"""527 Newport Ave, Quincy, MA 02170, USA""",42.260163,-71.014328,"""ROOFTOP""",1997-07-12 00:00:00,3,2014_leak
116127,"""92 Dresser St, Southbridge, MA 01550, USA""",42.074599,-72.03806,"""RANGE_INTERPOLATED""",1997-07-14 00:00:00,3,2014_leak
115045,"""Ratchford St & Shennen St, Quincy, MA 02169, USA""",42.269616,-70.95358,"""APPROXIMATE""",1997-07-21 00:00:00,3,2014_leak
115018,"""103 Belmont St, Weymouth, MA 02188, USA""",42.194433,-70.967558,"""ROOFTOP""",1997-07-28 00:00:00,3,2014_leak
114944,"""714 Main St, Lynnfield, MA 01940, USA""",42.54232,-71.046432,"""ROOFTOP""",1997-07-28 00:00:00,3,2014_leak
115048,"""1066 Sea St, Quincy, MA 02169, USA""",42.267304,-70.958139,"""ROOFTOP""",1997-07-29 00:00:00,3,2014_leak
115217,"""38 Jarvis Ave, Hingham, MA 02043, USA""",42.260645,-70.899397,"""RANGE_INTERPOLATED""",1997-08-01 00:00:00,3,2014_leak
115343,"""12 Salisbury St, Winchester, MA 01890, USA""",42.448882,-71.154058,"""ROOFTOP""",1997-08-05 00:00:00,3,2014_leak
121460,"""33 Wynot Rd, Braintree, MA 02184, USA""",42.21397,-71.002973,"""ROOFTOP""",1997-08-10 00:00:00,3,2014_leak
115464,"""330 King St, Littleton, MA 01460, USA""",42.540242,-71.481682,"""ROOFTOP""",1997-08-11 00:00:00,3,2014_leak
115573,"""Quincy, MA, USA""",42.252877,-71.00227,"""APPROXIMATE""",1997-08-13 00:00:00,3,2014_leak
115568,"""87 Sohier St, Cohasset, MA 02025, USA""",42.242216,-70.811046,"""ROOFTOP""",1997-08-13 00:00:00,3,2014_leak
115572,"""Quincy, MA, USA""",42.252877,-71.00227,"""APPROXIMATE""",1997-08-13 00:00:00,3,2014_leak
115541,"""148 Downer Ave, Hingham, MA 02043, USA""",42.259018,-70.89674,"""ROOFTOP""",1997-08-13 00:00:00,3,2014_leak
121472,"""217 Main St, Hingham, MA 02043, USA""",42.236584,-70.881878,"""RANGE_INTERPOLATED""",1997-08-13 00:00:00,3,2014_leak
115615,"""Downer Ave & Daley Rd, Hingham, MA 02043, USA""",42.25665,-70.899228,"""APPROXIMATE""",1997-08-13 00:00:00,3,2014_leak
115669,"""50 Orange St, Reading, MA 01867, USA""",42.528954,-71.096194,"""ROOFTOP""",1997-08-13 00:00:00,3,2014_leak
115614,"""6 Daley Rd, Hingham, MA 02043, USA""",42.256984,-70.899671,"""RANGE_INTERPOLATED""",1997-08-13 00:00:00,3,2014_leak
115547,"""31 Epping St, Weymouth, MA 02189, USA""",42.223491,-70.946215,"""ROOFTOP""",1997-08-13 00:00:00,3,2014_leak
115665,"""Main St & Salem St, Reading, MA 01867, USA""",42.525743,-71.102209,"""APPROXIMATE""",1997-08-13 00:00:00,3,2014_leak
115560,"""156 Sea St, Quincy, MA 02169, USA""",42.260744,-70.994592,"""ROOFTOP""",1997-08-13 00:00:00,3,2014_leak
115599,"""707 Main St, South Weymouth, MA 02190, USA""",42.181695,-70.956527,"""ROOFTOP""",1997-08-13 00:00:00,3,2014_leak
115549,"""Chard St & Maple St, Weymouth, MA 02189, USA""",42.220357,-70.934521,"""APPROXIMATE""",1997-08-13 00:00:00,3,2014_leak
115594,"""Dimmock St, Quincy, MA 02169, USA""",42.252473,-71.00817,"""GEOMETRIC_CENTER""",1997-08-13 00:00:00,3,2014_leak
121467,"""629 Main St, Hingham, MA 02043, USA""",42.215838,-70.884897,"""RANGE_INTERPOLATED""",1997-08-15 00:00:00,3,2014_leak
121477,"""774 Main St, Hingham, MA 02043, USA""",42.204765,-70.883961,"""RANGE_INTERPOLATED""",1997-08-15 00:00:00,3,2014_leak
121447,"""Washington St & Loretta Ave, Braintree, MA 02184, USA""",42.231282,-71.002226,"""APPROXIMATE""",1997-08-19 00:00:00,3,2014_leak
121563,"""272 Bridge St, North Weymouth, MA 02191, USA""",42.242934,-70.954575,"""ROOFTOP""",1997-08-25 00:00:00,3,2014_leak
117627,"""Commonwealth Avenue, Boston, MA, USA""",42.351276,-71.117777,"""GEOMETRIC_CENTER""",1997-08-26 00:00:00,3,2014_leak
116451,"""140 Fort Point Rd, North Weymouth, MA 02191, USA""",42.256982,-70.935209,"""ROOFTOP""",1997-08-26 00:00:00,3,2014_leak
116474,"""242 Blue Hill Avenue, Milton, MA 02186, USA""",42.257133,-71.098194,"""ROOFTOP""",1997-08-29 00:00:00,3,2014_leak
116385,"""14 Liberty St, Beverly, MA 01915, USA""",42.557697,-70.868565,"""ROOFTOP""",1997-09-03 00:00:00,3,2014_leak
116480,"""41 Herbert Rd, Braintree, MA 02184, USA""",42.212966,-71.014884,"""ROOFTOP""",1997-09-05 00:00:00,3,2014_leak
117637,"""845 Albany St, Roxbury, MA 02119, USA""",42.33201,-71.07628,"""ROOFTOP""",1997-09-08 00:00:00,3,2014_leak
117636,"""Commercial Street & Clark St, Boston, MA 02109, USA""",42.364823,-71.051049,"""APPROXIMATE""",1997-09-08 00:00:00,3,2014_leak
120011,"""409 Adams St, Milton, MA 02186, USA""",42.259895,-71.048055,"""ROOFTOP""",1997-09-08 00:00:00,3,2014_leak
116665,"""Minebrook Rd, Lincoln, MA 01773, USA""",42.425232,-71.295564,"""GEOMETRIC_CENTER""",1997-09-09 00:00:00,3,2014_leak
116531,"""289 Granite Ave, Milton, MA 02186, USA""",42.26135,-71.043134,"""ROOFTOP""",1997-09-09 00:00:00,3,2014_leak
119775,"""120 Summer St, Rockland, MA 02370, USA""",42.108619,-70.918692,"""ROOFTOP""",1997-09-18 00:00:00,3,2014_leak
117642,"""E Cottage St & Robey St, Boston, MA 02125, USA""",42.321341,-71.068543,"""APPROXIMATE""",1997-09-22 00:00:00,3,2014_leak
117440,"""66 Pacific St, Rockland, MA 02370, USA""",42.130971,-70.918443,"""ROOFTOP""",1997-09-23 00:00:00,3,2014_leak
117392,"""26 Wolcott Rd, Milton, MA 02186, USA""",42.238293,-71.119285,"""ROOFTOP""",1997-09-24 00:00:00,3,2014_leak
117994,"""7 McKinley Rd, Norwood, MA 02062, USA""",42.200849,-71.191021,"""ROOFTOP""",1997-09-24 00:00:00,3,2014_leak
117962,"""90 Access Rd, Norwood, MA 02062, USA""",42.185835,-71.178317,"""ROOFTOP""",1997-09-26 00:00:00,3,2014_leak
118024,"""164 Azalea Dr, Norwood, MA 02062, USA""",42.183077,-71.178505,"""ROOFTOP""",1997-09-26 00:00:00,3,2014_leak
116974,"""Manning Ave, Middleton, MA 01949, USA""",42.596615,-70.982851,"""GEOMETRIC_CENTER""",1997-09-30 00:00:00,3,2014_leak
116978,"""35 Lake St, Middleton, MA 01949, USA""",42.595258,-71.020313,"""ROOFTOP""",1997-09-30 00:00:00,3,2014_leak
117331,"""59 Buena Vista St, Devens, MA 01434, USA""",42.547268,-71.61176,"""RANGE_INTERPOLATED""",1997-10-15 00:00:00,3,2014_leak
117324,"""846 Birch Cir, Devens, MA 01434, USA""",42.548578,-71.6234,"""RANGE_INTERPOLATED""",1997-10-15 00:00:00,3,2014_leak
119608,"""20 Faunce Rd, Boston, MA 02126, USA""",42.271426,-71.090979,"""ROOFTOP""",1997-12-09 00:00:00,3,2014_leak
118738,"""2 Stone Ave, Stoneham, MA 02180, USA""",42.470379,-71.081159,"""ROOFTOP""",1997-12-17 00:00:00,3,2014_leak
118733,"""54 W Ferdinand St, Stoneham, MA 02180, USA""",42.473932,-71.08055,"""RANGE_INTERPOLATED""",1997-12-17 00:00:00,3,2014_leak
118831,"""12 Boyden Ave, Beverly, MA 01915, USA""",42.558248,-70.874584,"""ROOFTOP""",1997-12-17 00:00:00,3,2014_leak
119071,"""Birch St & Larch St, Clinton, MA 01510, USA""",42.418377,-71.673232,"""APPROXIMATE""",1997-12-18 00:00:00,3,2014_leak
119174,"""Boston Post Rd & Colpitts Rd, Weston, MA 02493, USA""",42.366879,-71.303753,"""APPROXIMATE""",1997-12-19 00:00:00,3,2014_leak
118996,"""260 Eliot St, Chestnut Hill, MA 02467, USA""",42.332237,-71.151909,"""RANGE_INTERPOLATED""",1997-12-22 00:00:00,2,2014_leak
119383,"""14 Oakcrest St, Saugus, MA 01906, USA""",42.47512,-70.998618,"""RANGE_INTERPOLATED""",1997-12-29 00:00:00,3,2014_leak
119348,"""117 Elm St, Stoneham, MA 02180, USA""",42.489196,-71.089685,"""ROOFTOP""",1997-12-31 00:00:00,3,2014_leak
119517,"""56 Clifton Ave, Saugus, MA 01906, USA""",42.447259,-71.007578,"""RANGE_INTERPOLATED""",1998-01-05 00:00:00,3,2014_leak
119637,"""47 Bradbury Ave, Medford, MA 02155, USA""",42.409658,-71.081999,"""RANGE_INTERPOLATED""",1998-01-09 00:00:00,3,2014_leak
119684,"""620 Fulton St, Medford, MA 02155, USA""",42.438508,-71.093665,"""ROOFTOP""",1998-01-13 00:00:00,3,2014_leak
119821,"""91 Vine St, Saugus, MA 01906, USA""",42.458877,-71.019515,"""ROOFTOP""",1998-01-14 00:00:00,3,2014_leak
119902,"""22 Wakefield Ave, Saugus, MA 01906, USA""",42.456102,-70.993778,"""RANGE_INTERPOLATED""",1998-01-20 00:00:00,3,2014_leak
120037,"""62 Plymouth Ave, Milton, MA 02186, USA""",42.255076,-71.042135,"""ROOFTOP""",1998-01-23 00:00:00,3,2014_leak
120119,"""523 Humphrey St, Swampscott, MA 01907, USA""",42.467602,-70.90496,"""ROOFTOP""",1998-01-26 00:00:00,3,2014_leak
120248,"""11 Sherwood Rd, Stoneham, MA 02180, USA""",42.496956,-71.106105,"""ROOFTOP""",1998-01-29 00:00:00,3,2014_leak
120260,"""73 Fort Hill St, Hingham, MA 02043, USA""",42.233434,-70.905483,"""RANGE_INTERPOLATED""",1998-01-30 00:00:00,3,2014_leak
120366,"""Huntington Ave & Forsyth Way, Boston, MA 02115, USA""",42.338833,-71.092496,"""APPROXIMATE""",1998-02-01 00:00:00,3,2014_leak
120295,"""116 Perkins St, Melrose, MA 02176, USA""",42.4646,-71.078078,"""RANGE_INTERPOLATED""",1998-02-02 00:00:00,3,2014_leak
120370,"""35 Marianne Rd, Waltham, MA 02452, USA""",42.382468,-71.217923,"""RANGE_INTERPOLATED""",1998-02-03 00:00:00,3,2014_leak
120546,"""760 Boylston St, Newton Highlands, MA 02461, USA""",42.319024,-71.201702,"""ROOFTOP""",1998-02-09 00:00:00,3,2014_leak
120625,"""10 Glen Cross Rd, Wellesley Hills, MA 02481, USA""",42.322922,-71.270723,"""ROOFTOP""",1998-02-10 00:00:00,3,2014_leak
120626,"""9 Pine Ridge Rd, Wellesley Hills, MA 02481, USA""",42.3244,-71.267455,"""ROOFTOP""",1998-02-10 00:00:00,3,2014_leak
120593,"""6 Fiske Rd, Saugus, MA 01906, USA""",42.468932,-71.014169,"""RANGE_INTERPOLATED""",1998-02-11 00:00:00,3,2014_leak
120741,"""Parkman St & N Grove St, Boston, MA 02114, USA""",42.36217,-71.068627,"""APPROXIMATE""",1998-02-14 00:00:00,3,2014_leak
120794,"""86 Whitney Rd, Medford, MA 02155, USA""",42.426136,-71.119331,"""RANGE_INTERPOLATED""",1998-02-19 00:00:00,3,2014_leak
120814,"""McGrath Hwy & Otis St, Somerville, MA 02145, USA""",42.387946,-71.08966,"""APPROXIMATE""",1998-02-20 00:00:00,3,2014_leak
121058,"""233 Northampton St, Boston, MA 02118, USA""",42.338627,-71.080512,"""ROOFTOP""",1998-02-27 00:00:00,3,2014_leak
121705,"""78 Summer St, Weymouth, MA 02188, USA""",42.211372,-70.966293,"""ROOFTOP""",1998-03-16 00:00:00,3,2014_leak
121712,"""822 Main St, Hingham, MA 02043, USA""",42.201295,-70.883913,"""RANGE_INTERPOLATED""",1998-03-16 00:00:00,3,2014_leak
121706,"""East St & Summer St, Hingham, MA 02043, USA""",42.241833,-70.866056,"""APPROXIMATE""",1998-03-16 00:00:00,3,2014_leak
121702,"""14 Safford St, Quincy, MA 02171, USA""",42.272121,-71.030914,"""ROOFTOP""",1998-03-17 00:00:00,3,2014_leak
121287,"""15 Howard Ave, Lynnfield, MA 01940, USA""",42.538386,-71.044623,"""ROOFTOP""",1998-03-18 00:00:00,3,2014_leak
121397,"""Boylston St & Warren St, Brookline, MA 02445, USA""",42.328767,-71.132879,"""APPROXIMATE""",1998-03-27 00:00:00,3,2014_leak
121534,"""Robin St & Rover St, Everett, MA 02149, USA""",42.393338,-71.065011,"""APPROXIMATE""",1998-03-30 00:00:00,3,2014_leak
121588,"""23 Argyle Rd, Braintree, MA 02184, USA""",42.229018,-70.963455,"""ROOFTOP""",1998-04-01 00:00:00,3,2014_leak
121659,"""School St & Norman St, Clinton, MA 01510, USA""",42.414346,-71.687953,"""APPROXIMATE""",1998-04-01 00:00:00,3,2014_leak
122259,"""4 Groveland Rd, Melrose, MA 02176, USA""",42.446189,-71.07377,"""ROOFTOP""",1998-04-02 00:00:00,3,2014_leak
121591,"""27 Pleasant View Ave, Braintree, MA 02184, USA""",42.229998,-70.970153,"""ROOFTOP""",1998-04-02 00:00:00,3,2014_leak
121653,"""Taft Ave & Bowker St, Lexington, MA 02421, USA""",42.424424,-71.198452,"""APPROXIMATE""",1998-04-02 00:00:00,3,2014_leak
121844,"""Jerusalem Rd, Cohasset, MA 02025, USA""",42.263516,-70.826904,"""GEOMETRIC_CENTER""",1998-04-03 00:00:00,3,2014_leak
122256,"""44 Frances St, Melrose, MA 02176, USA""",42.45002,-71.072586,"""RANGE_INTERPOLATED""",1998-04-03 00:00:00,3,2014_leak
122272,"""23 Avon St, Everett, MA 02149, USA""",42.414098,-71.062501,"""ROOFTOP""",1998-04-03 00:00:00,3,2014_leak
121887,"""835 Newton St, Chestnut Hill, MA 02467, USA""",42.307864,-71.168318,"""RANGE_INTERPOLATED""",1998-04-06 00:00:00,3,2014_leak
121858,"""44 Home Park Rd, Braintree, MA 02184, USA""",42.228501,-70.999732,"""ROOFTOP""",1998-04-07 00:00:00,3,2014_leak
122250,"""121 Beech Ave, Melrose, MA 02176, USA""",42.451892,-71.055115,"""ROOFTOP""",1998-04-07 00:00:00,3,2014_leak
121845,"""95 S Main St, Cohasset, MA 02025, USA""",42.238843,-70.800635,"""ROOFTOP""",1998-04-07 00:00:00,3,2014_leak
121969,"""Crafts St & Fessenden St, Newton, MA 02460, USA""",42.359687,-71.214834,"""APPROXIMATE""",1998-04-08 00:00:00,3,2014_leak
121802,"""1 Ware Ln, Marblehead, MA 01945, USA""",42.486627,-70.883721,"""ROOFTOP""",1998-04-08 00:00:00,3,2014_leak
121801,"""24 Hereford Rd, Marblehead, MA 01945, USA""",42.487036,-70.88036,"""ROOFTOP""",1998-04-08 00:00:00,3,2014_leak
122199,"""118 W Emerson St, Melrose, MA 02176, USA""",42.45887,-71.06836,"""ROOFTOP""",1998-04-08 00:00:00,3,2014_leak
121967,"""Robert St & Loretta Ave, Braintree, MA 02184, USA""",42.231252,-71.001216,"""APPROXIMATE""",1998-04-09 00:00:00,3,2014_leak
123458,"""199 Pleasant St, Brookline, MA 02446, USA""",42.349407,-71.118232,"""ROOFTOP""",1998-04-13 00:00:00,3,2014_leak
122960,"""237 Beech St, Boston, MA 02131, USA""",42.280734,-71.141092,"""ROOFTOP""",1998-04-13 00:00:00,3,2014_leak
122154,"""12 Morris St, Everett, MA 02149, USA""",42.412721,-71.050979,"""ROOFTOP""",1998-04-13 00:00:00,3,2014_leak
122061,"""170 Fuller St, Newton, MA 02465, USA""",42.336372,-71.226555,"""RANGE_INTERPOLATED""",1998-04-13 00:00:00,3,2014_leak
122126,"""217 Ferry St, Everett, MA 02149, USA""",42.411386,-71.04541,"""ROOFTOP""",1998-04-14 00:00:00,3,2014_leak
122127,"""224 Ferry St, Everett, MA 02149, USA""",42.411504,-71.045855,"""ROOFTOP""",1998-04-14 00:00:00,3,2014_leak
122125,"""215 Ferry St, Everett, MA 02149, USA""",42.411329,-71.045633,"""RANGE_INTERPOLATED""",1998-04-15 00:00:00,3,2014_leak
123186,"""Center for English Language & Orientation Programs, 369 St Paul St, Brookline, MA 02446, USA""",42.350482,-71.115625,"""ROOFTOP""",1998-04-15 00:00:00,3,2014_leak
122483,"""245 Elm St, Braintree, MA 02184, USA""",42.223284,-70.998971,"""ROOFTOP""",1998-04-15 00:00:00,3,2014_leak
122353,"""290 1st St, Melrose, MA 02176, USA""",42.458135,-71.04711,"""ROOFTOP""",1998-04-16 00:00:00,3,2014_leak
122356,"""123 Maverick St, Chelsea, MA 02150, USA""",42.388108,-71.030056,"""ROOFTOP""",1998-04-16 00:00:00,3,2014_leak
122352,"""19 Ashcroft Rd, Melrose, MA 02176, USA""",42.458121,-71.050604,"""ROOFTOP""",1998-04-16 00:00:00,3,2014_leak
122573,"""Hayward Rd, Acton, MA 01720, USA""",42.481024,-71.455829,"""GEOMETRIC_CENTER""",1998-04-17 00:00:00,3,2014_leak
122927,"""158 Dorchester St, Boston, MA 02127, USA""",42.333949,-71.048431,"""ROOFTOP""",1998-04-21 00:00:00,3,2014_leak
122342,"""26 Richwood St, Boston, MA 02132, USA""",42.285354,-71.15846,"""ROOFTOP""",1998-04-21 00:00:00,3,2014_leak
122503,"""80 Logan Dr, Braintree, MA 02184, USA""",42.210672,-70.991196,"""ROOFTOP""",1998-04-23 00:00:00,3,2014_leak
122738,"""35 Hamilton St, Braintree, MA 02184, USA""",42.217035,-70.985939,"""ROOFTOP""",1998-04-27 00:00:00,3,2014_leak
122776,"""206 Russell St, Everett, MA 02149, USA""",42.415744,-71.040521,"""RANGE_INTERPOLATED""",1998-04-28 00:00:00,3,2014_leak
123095,"""179 Trapelo Rd, Belmont, MA 02478, USA""",42.393568,-71.203676,"""RANGE_INTERPOLATED""",1998-04-28 00:00:00,3,2014_leak
122778,"""83 Russell St, Everett, MA 02149, USA""",42.416175,-71.043715,"""RANGE_INTERPOLATED""",1998-04-28 00:00:00,3,2014_leak
122765,"""56 Abby Rd, Braintree, MA 02184, USA""",42.201075,-70.986934,"""ROOFTOP""",1998-04-29 00:00:00,3,2014_leak
123034,"""350 Plain St, Braintree, MA 02184, USA""",42.198963,-70.990084,"""ROOFTOP""",1998-04-30 00:00:00,3,2014_leak
122832,"""41 Larchmont Rd, Melrose, MA 02176, USA""",42.463762,-71.051818,"""ROOFTOP""",1998-04-30 00:00:00,3,2014_leak
123622,"""Concord Rd & Horseshoe Dr, Acton, MA 01720, USA""",42.478107,-71.41672,"""APPROXIMATE""",1998-04-30 00:00:00,3,2014_leak
122833,"""71 Larchmont Rd, Melrose, MA 02176, USA""",42.464583,-71.05245,"""RANGE_INTERPOLATED""",1998-04-30 00:00:00,3,2014_leak
123057,"""19 Wynot Rd, Braintree, MA 02184, USA""",42.213736,-71.003665,"""ROOFTOP""",1998-05-01 00:00:00,3,2014_leak
122942,"""336 Cambridge St, Boston, MA 02134, USA""",42.356007,-71.131422,"""RANGE_INTERPOLATED""",1998-05-04 00:00:00,3,2014_leak
123979,"""25 Regent Cir, Brookline, MA 02445, USA""",42.337173,-71.140122,"""RANGE_INTERPOLATED""",1998-05-04 00:00:00,3,2014_leak
123112,"""41 Park Ave, Hull, MA 02045, USA""",42.26631,-70.852984,"""RANGE_INTERPOLATED""",1998-05-04 00:00:00,3,2014_leak
123065,"""E Main St, Southbridge, MA 01550, USA""",42.07073,-72.017079,"""GEOMETRIC_CENTER""",1998-05-05 00:00:00,3,2014_leak
123193,"""85 Coolidge St, Brookline, MA 02446, USA""",42.346677,-71.126698,"""ROOFTOP""",1998-05-05 00:00:00,3,2014_leak
123063,"""27 Cliff St, Southbridge, MA 01550, USA""",42.08375,-72.041555,"""RANGE_INTERPOLATED""",1998-05-06 00:00:00,3,2014_leak
123666,"""150 Standard St, Boston, MA 02126, USA""",42.276368,-71.080362,"""RANGE_INTERPOLATED""",1998-05-07 00:00:00,3,2014_leak
123502,"""63 Parkside Ave, Braintree, MA 02184, USA""",42.221312,-71.011385,"""ROOFTOP""",1998-05-13 00:00:00,3,2014_leak
123452,"""35 Highland St, Clinton, MA 01510, USA""",42.425701,-71.699575,"""RANGE_INTERPOLATED""",1998-05-14 00:00:00,3,2014_leak
123670,"""15 Christine Terrace, South Weymouth, MA 02190, USA""",42.188556,-70.954368,"""ROOFTOP""",1998-05-14 00:00:00,3,2014_leak
123522,"""91 Walnut Ave, Braintree, MA 02184, USA""",42.214454,-70.971846,"""RANGE_INTERPOLATED""",1998-05-14 00:00:00,3,2014_leak
123509,"""24 Clifton Ave, Hull, MA 02045, USA""",42.276921,-70.881921,"""RANGE_INTERPOLATED""",1998-05-14 00:00:00,3,2014_leak
123511,"""25 Clifton Ave, Hull, MA 02045, USA""",42.276895,-70.881877,"""RANGE_INTERPOLATED""",1998-05-14 00:00:00,3,2014_leak
123536,"""West St & Ellsmore Terrace, Braintree, MA 02184, USA""",42.214069,-71.015352,"""APPROXIMATE""",1998-05-15 00:00:00,3,2014_leak
124015,"""Washington St & Bartlett St, Brookline, MA 02445, USA""",42.341137,-71.138013,"""APPROXIMATE""",1998-05-18 00:00:00,3,2014_leak
124002,"""292 Mason Terrace, Brookline, MA 02446, USA""",42.344709,-71.134431,"""RANGE_INTERPOLATED""",1998-05-18 00:00:00,3,2014_leak
124010,"""380 Washington St, Brookline, MA 02445, USA""",42.334291,-71.122666,"""ROOFTOP""",1998-05-19 00:00:00,3,2014_leak
123943,"""55 Park Dr, Boston, MA 02215, USA""",42.343024,-71.095176,"""ROOFTOP""",1998-05-21 00:00:00,3,2014_leak
123956,"""151 Brookline Ave, Boston, MA 02215, USA""",42.34502,-71.100857,"""RANGE_INTERPOLATED""",1998-05-21 00:00:00,3,2014_leak
123781,"""15 Main St, Gilbertville, MA 01031, USA""",42.312386,-72.20527,"""ROOFTOP""",1998-05-22 00:00:00,3,2014_leak
123774,"""E Main St, East Brookfield, MA 01515, USA""",42.227748,-72.041221,"""GEOMETRIC_CENTER""",1998-05-22 00:00:00,3,2014_leak
123839,"""118 E Main St, West Brookfield, MA 01585, USA""",42.231094,-72.13262,"""RANGE_INTERPOLATED""",1998-05-26 00:00:00,3,2014_leak
123829,"""38 Cottage St, West Brookfield, MA 01585, USA""",42.236888,-72.144788,"""RANGE_INTERPOLATED""",1998-05-26 00:00:00,3,2014_leak
123906,"""5 N High St, Melrose, MA 02176, USA""",42.457248,-71.070812,"""ROOFTOP""",1998-05-27 00:00:00,3,2014_leak
124101,"""201 Jefferson St, Braintree, MA 02184, USA""",42.192404,-71.009407,"""ROOFTOP""",1998-05-28 00:00:00,3,2014_leak
124285,"""33 Welland Rd, Brookline, MA 02445, USA""",42.335034,-71.128252,"""RANGE_INTERPOLATED""",1998-05-29 00:00:00,3,2014_leak
124287,"""Brookline, MA, USA""",42.331764,-71.121163,"""APPROXIMATE""",1998-05-29 00:00:00,3,2014_leak
124338,"""1666 Washington St, Braintree, MA 02184, USA""",42.181926,-71.012909,"""ROOFTOP""",1998-05-29 00:00:00,3,2014_leak
124286,"""83 Welland Rd, Brookline, MA 02445, USA""",42.333941,-71.129867,"""ROOFTOP""",1998-05-29 00:00:00,3,2014_leak
124045,"""W Main St, Brookfield, MA 01506, USA""",42.217022,-72.11102,"""GEOMETRIC_CENTER""",1998-05-31 00:00:00,3,2014_leak
124343,"""Washington St & Hillview Rd, Braintree, MA 02184, USA""",42.178428,-71.014628,"""APPROXIMATE""",1998-06-01 00:00:00,3,2014_leak
124257,"""25 Orchard St, Marblehead, MA 01945, USA""",42.490276,-70.86236,"""ROOFTOP""",1998-06-02 00:00:00,3,2014_leak
124184,"""88 W Main St, Dudley, MA 01571, USA""",42.044803,-71.898828,"""RANGE_INTERPOLATED""",1998-06-02 00:00:00,3,2014_leak
124751,"""214 W Main St, Dudley, MA 01571, USA""",42.038003,-71.91676,"""RANGE_INTERPOLATED""",1998-06-02 00:00:00,3,2014_leak
124304,"""Hart St, Brookline, MA 02445, USA""",42.326413,-71.122693,"""GEOMETRIC_CENTER""",1998-06-02 00:00:00,3,2014_leak
124958,"""1437 Centre St, Boston, MA 02132, USA""",42.29344,-71.137641,"""ROOFTOP""",1998-06-03 00:00:00,3,2014_leak
124408,"""9 Upland Rd, Brookline, MA 02445, USA""",42.330345,-71.119479,"""ROOFTOP""",1998-06-04 00:00:00,3,2014_leak
124288,"""Brookline, MA, USA""",42.331764,-71.121163,"""APPROXIMATE""",1998-06-05 00:00:00,3,2014_leak
124561,"""63 Lakewood Rd, South Weymouth, MA 02190, USA""",42.167064,-70.961982,"""ROOFTOP""",1998-06-10 00:00:00,3,2014_leak
124748,"""662 Chestnut Hill Ave, Brookline, MA 02445, USA""",42.327772,-71.144202,"""RANGE_INTERPOLATED""",1998-06-10 00:00:00,3,2014_leak
125117,"""194 Eliot St, Chestnut Hill, MA 02467, USA""",42.330111,-71.151404,"""RANGE_INTERPOLATED""",1998-06-11 00:00:00,3,2014_leak
127368,"""68 Larchmont Ave, Waban, MA 02468, USA""",42.323724,-71.225044,"""RANGE_INTERPOLATED""",1998-06-11 00:00:00,3,2014_leak
124567,"""1400 Main St, South Weymouth, MA 02190, USA""",42.156434,-70.954831,"""ROOFTOP""",1998-06-11 00:00:00,3,2014_leak
125122,"""24 Cleveland Rd, Brookline, MA 02445, USA""",42.330902,-71.151492,"""RANGE_INTERPOLATED""",1998-06-11 00:00:00,3,2014_leak
124684,"""143 Central St, Weymouth, MA 02190, USA""",42.170081,-70.947694,"""ROOFTOP""",1998-06-12 00:00:00,3,2014_leak
124683,"""188 Central St, South Weymouth, MA 02190, USA""",42.169881,-70.94574,"""ROOFTOP""",1998-06-12 00:00:00,3,2014_leak
124690,"""24 White St, Weymouth, MA 02190, USA""",42.171058,-70.943464,"""RANGE_INTERPOLATED""",1998-06-15 00:00:00,3,2014_leak
124756,"""NW Schoolhouse Rd, Dudley, MA 01571, USA""",42.065435,-71.96241,"""GEOMETRIC_CENTER""",1998-06-15 00:00:00,3,2014_leak
125129,"""Heath St & Lapland St, Chestnut Hill, MA 02467, USA""",42.321818,-71.14982,"""APPROXIMATE""",1998-06-15 00:00:00,3,2014_leak
124689,"""31 White St, South Weymouth, MA 02190, USA""",42.170871,-70.944187,"""ROOFTOP""",1998-06-15 00:00:00,3,2014_leak
124680,"""28 Rockcroft Rd, Weymouth, MA 02188, USA""",42.187167,-70.960585,"""ROOFTOP""",1998-06-15 00:00:00,3,2014_leak
124764,"""Weymouth, MA, USA""",42.218072,-70.941036,"""APPROXIMATE""",1998-06-16 00:00:00,3,2014_leak
124726,"""137 Harvard Ave, Medford, MA 02155, USA""",42.416465,-71.137796,"""ROOFTOP""",1998-06-16 00:00:00,3,2014_leak
124843,"""640 Union St, South Weymouth, MA 02190, USA""",42.157046,-70.927544,"""ROOFTOP""",1998-06-17 00:00:00,3,2014_leak
124838,"""49 Columbian St, Weymouth, MA 02190, USA""",42.17579,-70.952659,"""RANGE_INTERPOLATED""",1998-06-17 00:00:00,3,2014_leak
124842,"""549 Union St, South Weymouth, MA 02190, USA""",42.159082,-70.932058,"""ROOFTOP""",1998-06-17 00:00:00,3,2014_leak
124845,"""507 Union St, South Weymouth, MA 02190, USA""",42.16047,-70.932872,"""ROOFTOP""",1998-06-17 00:00:00,3,2014_leak
124908,"""15 Sylvester Rd, Dorchester, MA 02122, USA""",42.284535,-71.047781,"""ROOFTOP""",1998-06-18 00:00:00,3,2014_leak
124850,"""69 Eugene St, Leominster, MA 01453, USA""",42.51037,-71.768878,"""RANGE_INTERPOLATED""",1998-06-19 00:00:00,3,2014_leak
124899,"""66 Stagecoach Rd, Leominster, MA 01453, USA""",42.532082,-71.721676,"""RANGE_INTERPOLATED""",1998-06-19 00:00:00,3,2014_leak
125142,"""275 South St, Chestnut Hill, MA 02467, USA""",42.298861,-71.15137,"""RANGE_INTERPOLATED""",1998-06-21 00:00:00,3,2014_leak
124983,"""249 7th St, Leominster, MA 01453, USA""",42.521893,-71.747611,"""RANGE_INTERPOLATED""",1998-06-22 00:00:00,3,2014_leak
125043,"""90 Union St, South Weymouth, MA 02190, USA""",42.173289,-70.946573,"""ROOFTOP""",1998-06-23 00:00:00,3,2014_leak
125141,"""223 South St, Chestnut Hill, MA 02467, USA""",42.300399,-71.151879,"""RANGE_INTERPOLATED""",1998-06-23 00:00:00,3,2014_leak
125208,"""395 Ashmont St, Dorchester Center, MA 02124, USA""",42.287706,-71.056101,"""ROOFTOP""",1998-06-23 00:00:00,3,2014_leak
125044,"""135 Union St, South Weymouth, MA 02190, USA""",42.171885,-70.944543,"""ROOFTOP""",1998-06-23 00:00:00,3,2014_leak
125045,"""28 Apple Tree Ln, Weymouth, MA 02188, USA""",42.207307,-70.966652,"""ROOFTOP""",1998-06-23 00:00:00,3,2014_leak
125042,"""422 Summer St, Weymouth, MA 02188, USA""",42.198774,-70.969948,"""ROOFTOP""",1998-06-23 00:00:00,3,2014_leak
125177,"""44 Delia Walker Ave, South Weymouth, MA 02190, USA""",42.169908,-70.935688,"""ROOFTOP""",1998-06-24 00:00:00,3,2014_leak
125071,"""Princeton St & St Asaph St, Leominster, MA 01453, USA""",42.556351,-71.774008,"""APPROXIMATE""",1998-06-24 00:00:00,3,2014_leak
125179,"""120 Constitution Ave, South Weymouth, MA 02190, USA""",42.171427,-70.93653,"""ROOFTOP""",1998-06-24 00:00:00,3,2014_leak
125148,"""68 Waumbeck St, Boston, MA 02121, USA""",42.314681,-71.089203,"""ROOFTOP""",1998-06-24 00:00:00,3,2014_leak
125182,"""17 Blanchard Rd, Weymouth, MA 02190, USA""",42.174419,-70.948477,"""ROOFTOP""",1998-06-24 00:00:00,3,2014_leak
125175,"""32 Delia Walker Ave, Weymouth, MA 02190, USA""",42.169953,-70.93628,"""ROOFTOP""",1998-06-24 00:00:00,3,2014_leak
125180,"""50 Black Hawk Rd, South Weymouth, MA 02190, USA""",42.170499,-70.934875,"""ROOFTOP""",1998-06-24 00:00:00,3,2014_leak
125162,"""21 Hewlett St, Boston, MA 02131, USA""",42.289735,-71.134529,"""ROOFTOP""",1998-06-25 00:00:00,3,2014_leak
125185,"""55 Chauncy St, Weymouth, MA 02190, USA""",42.172399,-70.951595,"""ROOFTOP""",1998-06-25 00:00:00,3,2014_leak
125186,"""Chauncy St, Weymouth, MA 02190, USA""",42.172954,-70.951233,"""GEOMETRIC_CENTER""",1998-06-25 00:00:00,3,2014_leak
125099,"""38 Crawford St, Boston, MA 02121, USA""",42.311531,-71.085765,"""ROOFTOP""",1998-06-25 00:00:00,3,2014_leak
125224,"""5 Brookvale St, Boston, MA 02124, USA""",42.278976,-71.065636,"""RANGE_INTERPOLATED""",1998-06-26 00:00:00,3,2014_leak
125130,"""242 Heath St, Chestnut Hill, MA 02467, USA""",42.321638,-71.150614,"""RANGE_INTERPOLATED""",1998-06-26 00:00:00,3,2014_leak
125498,"""58 Great Republic Ave, South Weymouth, MA 02190, USA""",42.175161,-70.942761,"""ROOFTOP""",1998-06-29 00:00:00,3,2014_leak
125500,"""89 Bald Eagle Rd, Weymouth, MA 02190, USA""",42.173986,-70.942773,"""ROOFTOP""",1998-06-29 00:00:00,3,2014_leak
125380,"""183 Prescott St, Clinton, MA 01510, USA""",42.420465,-71.677937,"""RANGE_INTERPOLATED""",1998-07-01 00:00:00,3,2014_leak
125330,"""School St, Webster, MA 01570, USA""",42.035969,-71.882425,"""GEOMETRIC_CENTER""",1998-07-01 00:00:00,3,2014_leak
125608,"""82 Federal St, Weymouth, MA 02188, USA""",42.207842,-70.961622,"""ROOFTOP""",1998-07-01 00:00:00,3,2014_leak
125514,"""Ralph Talbot St & Pine St, Weymouth, MA 02190, USA""",42.178977,-70.930335,"""APPROXIMATE""",1998-07-01 00:00:00,3,2014_leak
125606,"""446 Ralph Talbot St, South Weymouth, MA 02190, USA""",42.179645,-70.92836,"""ROOFTOP""",1998-07-01 00:00:00,3,2014_leak
125795,"""50 Pokonoket Ave, Sudbury, MA 01776, USA""",42.364458,-71.407533,"""ROOFTOP""",1998-07-02 00:00:00,3,2014_leak
125794,"""119 Pokonoket Ave, Sudbury, MA 01776, USA""",42.369303,-71.409733,"""ROOFTOP""",1998-07-02 00:00:00,3,2014_leak
125600,"""Boylston St & Catlin Rd, Brookline, MA 02445, USA""",42.327925,-71.136675,"""APPROXIMATE""",1998-07-06 00:00:00,3,2014_leak
125706,"""Main St & Columbian St, Weymouth, MA 02190, USA""",42.176759,-70.955332,"""APPROXIMATE""",1998-07-07 00:00:00,3,2014_leak
125703,"""73 Tamarack Trail, Weymouth, MA 02190, USA""",42.176763,-70.924162,"""RANGE_INTERPOLATED""",1998-07-07 00:00:00,3,2014_leak
125633,"""85 Greenleaf Ave, Medford, MA 02155, USA""",42.411329,-71.117717,"""ROOFTOP""",1998-07-07 00:00:00,3,2014_leak
125777,"""12 Heather St, Beverly, MA 01915, USA""",42.56136,-70.875197,"""ROOFTOP""",1998-07-08 00:00:00,3,2014_leak
125778,"""115 Odell Ave, Beverly, MA 01915, USA""",42.561258,-70.870685,"""ROOFTOP""",1998-07-09 00:00:00,3,2014_leak
125773,"""8 Loring Ave, Salem, MA 01970, USA""",42.504802,-70.891493,"""ROOFTOP""",1998-07-09 00:00:00,3,2014_leak
125829,"""751 Broad St, Weymouth, MA 02189, USA""",42.216287,-70.927477,"""RANGE_INTERPOLATED""",1998-07-10 00:00:00,3,2014_leak
126107,"""70 Msgr Patrick J Lydon Way, Dorchester Center, MA 02124, USA""",42.289292,-71.059513,"""ROOFTOP""",1998-07-14 00:00:00,3,2014_leak
126111,"""74 Edwin St, Boston, MA 02124, USA""",42.289833,-71.059536,"""ROOFTOP""",1998-07-14 00:00:00,3,2014_leak
125981,"""Qian Jie, Mawei Qu, Fuzhou Shi, Fujian Sheng, China""",25.990512,119.445393,"""GEOMETRIC_CENTER""",1998-07-15 00:00:00,3,2014_leak
125987,"""54 Woodside Rd, Harvard, MA 01451, USA""",42.474461,-71.599893,"""ROOFTOP""",1998-07-15 00:00:00,3,2014_leak
126031,"""Main St, Webster, MA 01570, USA""",42.049148,-71.88342,"""GEOMETRIC_CENTER""",1998-07-15 00:00:00,3,2014_leak
126026,"""421 S Main St, Webster, MA 01570, USA""",42.050852,-71.879645,"""RANGE_INTERPOLATED""",1998-07-15 00:00:00,3,2014_leak
125992,"""106 Washington St, Ayer, MA 01432, USA""",42.566778,-71.580496,"""ROOFTOP""",1998-07-15 00:00:00,3,2014_leak
126112,"""8 Walker St, Weymouth, MA 02188, USA""",42.218044,-70.963117,"""ROOFTOP""",1998-07-15 00:00:00,3,2014_leak
126029,"""631 S Main St, Webster, MA 01570, USA""",42.052948,-71.87881,"""RANGE_INTERPOLATED""",1998-07-15 00:00:00,3,2014_leak
125990,"""8 Moore Dr, Ayer, MA 01432, USA""",42.569228,-71.576211,"""ROOFTOP""",1998-07-15 00:00:00,3,2014_leak
126258,"""10 Semont Rd, Dorchester Center, MA 02124, USA""",42.290864,-71.062423,"""ROOFTOP""",1998-07-16 00:00:00,3,2014_leak
126457,"""Patton Rd, Harvard, MA 01451, USA""",42.534091,-71.598092,"""GEOMETRIC_CENTER""",1998-07-20 00:00:00,3,2014_leak
126458,"""762 Salerno Cir, Harvard, MA 01451, USA""",42.52139,-71.604604,"""RANGE_INTERPOLATED""",1998-07-20 00:00:00,3,2014_leak
126304,"""207 Highland Ave, Salem, MA 01970, USA""",42.505278,-70.918997,"""ROOFTOP""",1998-07-20 00:00:00,3,2014_leak
126867,"""91 Belgrade Ave, Roslindale, MA 02131, USA""",42.28656,-71.133932,"""ROOFTOP""",1998-07-21 00:00:00,3,2014_leak
126550,"""81-83 Park St, Dorchester, MA 02122, USA""",42.300008,-71.056945,"""ROOFTOP""",1998-07-21 00:00:00,3,2014_leak
126437,"""54 Shirley Rd, Groton, MA 01450, USA""",42.590183,-71.585901,"""RANGE_INTERPOLATED""",1998-07-21 00:00:00,3,2014_leak
126229,"""74 E Main St, Webster, MA 01570, USA""",42.057212,-71.870384,"""RANGE_INTERPOLATED""",1998-07-21 00:00:00,3,2014_leak
126225,"""56 E Main St, Webster, MA 01570, USA""",42.056253,-71.872825,"""RANGE_INTERPOLATED""",1998-07-21 00:00:00,3,2014_leak
126387,"""28 Slater St, Webster, MA 01570, USA""",42.059512,-71.872388,"""RANGE_INTERPOLATED""",1998-07-22 00:00:00,3,2014_leak
126445,"""46 Hollis St, Groton, MA 01450, USA""",42.612585,-71.573023,"""RANGE_INTERPOLATED""",1998-07-22 00:00:00,3,2014_leak
126571,"""11 Water St, East Weymouth, MA 02189, USA""",42.214414,-70.924131,"""ROOFTOP""",1998-07-23 00:00:00,3,2014_leak
126507,"""Porter St & Cliff St, Beverly, MA 01915, USA""",42.541218,-70.888905,"""APPROXIMATE""",1998-07-23 00:00:00,3,2014_leak
126453,"""26 Fairview Ave, Groton, MA 01450, USA""",42.61301,-71.57969,"""RANGE_INTERPOLATED""",1998-07-23 00:00:00,3,2014_leak
126585,"""68 Circuit Ave, Weymouth, MA 02188, USA""",42.196972,-70.951368,"""ROOFTOP""",1998-07-24 00:00:00,3,2014_leak
126614,"""Newtown Rd, Littleton, MA 01460, USA""",42.51609,-71.469396,"""GEOMETRIC_CENTER""",1998-07-27 00:00:00,3,2014_leak
126600,"""24 Abbott St, Beverly, MA 01915, USA""",42.547624,-70.877089,"""RANGE_INTERPOLATED""",1998-07-27 00:00:00,3,2014_leak
126615,"""183 Goldsmith St, Littleton, MA 01460, USA""",42.535688,-71.465443,"""ROOFTOP""",1998-07-27 00:00:00,3,2014_leak
126699,"""306 Middle St, East Weymouth, MA 02189, USA""",42.212777,-70.940506,"""ROOFTOP""",1998-07-28 00:00:00,3,2014_leak
126739,"""295 Lake St, Weymouth, MA 02189, USA""",42.210129,-70.941535,"""ROOFTOP""",1998-07-29 00:00:00,3,2014_leak
126763,"""Marian Rd, Acton, MA 01720, USA""",42.466716,-71.483374,"""GEOMETRIC_CENTER""",1998-07-29 00:00:00,3,2014_leak
126761,"""22 Duggan Rd, Acton, MA 01720, USA""",42.463031,-71.486292,"""ROOFTOP""",1998-07-29 00:00:00,3,2014_leak
126755,"""Middle St & Prince St, Weymouth, MA 02189, USA""",42.21095,-70.942867,"""APPROXIMATE""",1998-07-30 00:00:00,3,2014_leak
126754,"""9 Lakeside Ave, East Weymouth, MA 02189, USA""",42.211885,-70.930345,"""ROOFTOP""",1998-07-30 00:00:00,3,2014_leak
127284,"""108 River St, Acton, MA 01720, USA""",42.458315,-71.439424,"""ROOFTOP""",1998-08-03 00:00:00,3,2014_leak
126977,"""47 Suwanee Rd, East Weymouth, MA 02189, USA""",42.219402,-70.916815,"""ROOFTOP""",1998-08-03 00:00:00,3,2014_leak
127045,"""69 Mayfield St, Boston, MA 02125, USA""",42.316986,-71.05988,"""ROOFTOP""",1998-08-04 00:00:00,3,2014_leak
127106,"""9 Wachusett Dr, Acton, MA 01720, USA""",42.493666,-71.472796,"""ROOFTOP""",1998-08-04 00:00:00,3,2014_leak
126954,"""7 Ray St, Beverly, MA 01915, USA""",42.555906,-70.861658,"""ROOFTOP""",1998-08-04 00:00:00,3,2014_leak
127012,"""92 Grant St, East Weymouth, MA 02189, USA""",42.217997,-70.919683,"""ROOFTOP""",1998-08-04 00:00:00,3,2014_leak
127042,"""17 Pleasant St, Dorchester, MA 02125, USA""",42.31753,-71.059453,"""ROOFTOP""",1998-08-04 00:00:00,3,2014_leak
127055,"""27 Putnam St, East Weymouth, MA 02189, USA""",42.218494,-70.931957,"""ROOFTOP""",1998-08-05 00:00:00,3,2014_leak
127054,"""43 Putnam St, East Weymouth, MA 02189, USA""",42.218801,-70.932236,"""ROOFTOP""",1998-08-05 00:00:00,3,2014_leak
127023,"""23 Lake St, Webster, MA 01570, USA""",42.049931,-71.877801,"""RANGE_INTERPOLATED""",1998-08-05 00:00:00,3,2014_leak
127046,"""87 Chard St, East Weymouth, MA 02189, USA""",42.221511,-70.935232,"""ROOFTOP""",1998-08-05 00:00:00,3,2014_leak
127051,"""152 Chard St, East Weymouth, MA 02189, USA""",42.222035,-70.937996,"""ROOFTOP""",1998-08-05 00:00:00,3,2014_leak
127052,"""84 Chard St, East Weymouth, MA 02189, USA""",42.221003,-70.935671,"""ROOFTOP""",1998-08-05 00:00:00,3,2014_leak
127048,"""88 Chard St, East Weymouth, MA 02189, USA""",42.221116,-70.935878,"""ROOFTOP""",1998-08-05 00:00:00,3,2014_leak
127253,"""830 Main St, Acton, MA 01720, USA""",42.514661,-71.407123,"""RANGE_INTERPOLATED""",1998-08-06 00:00:00,3,2014_leak
127753,"""335 K St, Boston, MA 02127, USA""",42.332153,-71.037542,"""ROOFTOP""",1998-08-06 00:00:00,3,2014_leak
127090,"""213 Winn St, Woburn, MA 01801, USA""",42.488475,-71.168372,"""ROOFTOP""",1998-08-06 00:00:00,3,2014_leak
127119,"""396 Washington St, Weymouth, MA 02189, USA""",42.210638,-70.958542,"""ROOFTOP""",1998-08-06 00:00:00,3,2014_leak
127093,"""16 Magoun Ave, Medford, MA 02155, USA""",42.41621,-71.098983,"""RANGE_INTERPOLATED""",1998-08-06 00:00:00,3,2014_leak
127116,"""1320 Commercial St, East Weymouth, MA 02189, USA""",42.216198,-70.924926,"""ROOFTOP""",1998-08-06 00:00:00,3,2014_leak
127212,"""36 East St, Boston, MA 02122, USA""",42.307463,-71.06028,"""ROOFTOP""",1998-08-06 00:00:00,3,2014_leak
127204,"""46 Mount Vernon Rd W, East Weymouth, MA 02189, USA""",42.226153,-70.937142,"""ROOFTOP""",1998-08-07 00:00:00,3,2014_leak
127202,"""60 Mount Vernon Rd W, East Weymouth, MA 02189, USA""",42.226758,-70.937456,"""ROOFTOP""",1998-08-07 00:00:00,3,2014_leak
127342,"""525 Boston Providence Hwy, Norwood, MA 02062, USA""",42.192032,-71.184897,"""ROOFTOP""",1998-08-10 00:00:00,3,2014_leak
127328,"""East St & Puritan Rd, Weymouth, MA 02189, USA""",42.225818,-70.930428,"""APPROXIMATE""",1998-08-10 00:00:00,3,2014_leak
127332,"""East St & Lee St, Weymouth, MA 02189, USA""",42.222732,-70.927576,"""APPROXIMATE""",1998-08-10 00:00:00,3,2014_leak
127330,"""East St & Emerson St, Weymouth, MA 02189, USA""",42.225103,-70.929185,"""APPROXIMATE""",1998-08-10 00:00:00,3,2014_leak
127321,"""93 Wilson Ave, Weymouth, MA 02188, USA""",42.222921,-70.95348,"""ROOFTOP""",1998-08-10 00:00:00,3,2014_leak
127310,"""8 Coolidge Ave, Weymouth, MA 02188, USA""",42.224329,-70.954211,"""ROOFTOP""",1998-08-10 00:00:00,3,2014_leak
127387,"""91 Stoughton St, Boston, MA 02125, USA""",42.31569,-71.062083,"""RANGE_INTERPOLATED""",1998-08-10 00:00:00,3,2014_leak
127388,"""124 Stoughton St, Dorchester, MA 02125, USA""",42.315346,-71.060766,"""ROOFTOP""",1998-08-10 00:00:00,2,2014_leak
127308,"""96 Seminole Ave, Weymouth, MA 02188, USA""",42.230209,-70.956476,"""ROOFTOP""",1998-08-11 00:00:00,3,2014_leak
127309,"""44 Soper Ave, Weymouth, MA 02188, USA""",42.226529,-70.956745,"""ROOFTOP""",1998-08-11 00:00:00,3,2014_leak
127301,"""104 Endicott St, Weymouth, MA 02189, USA""",42.223551,-70.928882,"""ROOFTOP""",1998-08-11 00:00:00,3,2014_leak
127578,"""Hemlock Rd & Tanbark Rd, Sudbury, MA 01776, USA""",42.378814,-71.447114,"""APPROXIMATE""",1998-08-12 00:00:00,3,2014_leak
127354,"""22 Park Ave, Webster, MA 01570, USA""",42.056087,-71.869053,"""RANGE_INTERPOLATED""",1998-08-13 00:00:00,3,2014_leak
127473,"""596 East St, Weymouth, MA 02189, USA""",42.219263,-70.926954,"""ROOFTOP""",1998-08-14 00:00:00,3,2014_leak
127720,"""N Main St & Mill St, Webster, MA 01570, USA""",42.063001,-71.878016,"""APPROXIMATE""",1998-08-17 00:00:00,3,2014_leak
127639,"""57 Doris Dr, Weymouth, MA 02191, USA""",42.236667,-70.93347,"""ROOFTOP""",1998-08-18 00:00:00,3,2014_leak
127636,"""87 Abigail Adams Cir, North Weymouth, MA 02191, USA""",42.231652,-70.947042,"""ROOFTOP""",1998-08-18 00:00:00,3,2014_leak
127843,"""244 Manchester St, Mattapan, MA 02126, USA""",42.273463,-71.078285,"""ROOFTOP""",1998-08-19 00:00:00,3,2014_leak
127825,"""29 Holmes Ave, North Weymouth, MA 02191, USA""",42.239669,-70.937244,"""ROOFTOP""",1998-08-20 00:00:00,3,2014_leak
127820,"""30 Woronoco Rd, Weymouth, MA 02191, USA""",42.239171,-70.952219,"""RANGE_INTERPOLATED""",1998-08-21 00:00:00,3,2014_leak
127818,"""North St & Moreland Rd, Weymouth, MA 02191, USA""",42.236681,-70.944296,"""APPROXIMATE""",1998-08-21 00:00:00,3,2014_leak
127821,"""9 Rosemont Rd, North Weymouth, MA 02191, USA""",42.242117,-70.958353,"""ROOFTOP""",1998-08-21 00:00:00,3,2014_leak
128282,"""6 Boundary Rd, Malden, MA 02148, USA""",42.427404,-71.083228,"""ROOFTOP""",1998-08-24 00:00:00,3,2014_leak
