id,formatted_address,lat,lng,location_type,record_date,grade,record_type
93818,"""Boston Logan International Airport, 1 Harborside Dr, Boston, MA 02128, USA""",42.365613,-71.00956,"""APPROXIMATE""",1985-09-16,3,2014_leak
42122,"""282 Main St, Winchester, MA 01890, USA""",42.444362,-71.134975,"""ROOFTOP""",1989-10-04,3,2014_leak
39014,"""Massachusetts, USA""",42.407211,-71.382437,"""APPROXIMATE""",1990-04-20,3,2014_leak
42817,"""62 Melbourne St, Boston, MA 02124, USA""",42.28974,-71.065398,"""RANGE_INTERPOLATED""",1990-04-23,3,2014_leak
93831,"""16 Grove St, Marshfield, MA 02050, USA""",42.110643,-70.698753,"""RANGE_INTERPOLATED""",1990-06-07,3,2014_leak
40217,"""Massachusetts, USA""",42.407211,-71.382437,"""APPROXIMATE""",1990-06-13,3,2014_leak
40213,"""Massachusetts, USA""",42.407211,-71.382437,"""APPROXIMATE""",1990-06-21,3,2014_leak
336411,"""72 Charles Diersch St, Weymouth, MA 02189, USA""",42.206097,-70.92121,"""ROOFTOP""",1990-07-16,3,2014_leak
336417,"""91 Hill St, Weymouth, MA 02189, USA""",42.216439,-70.917428,"""ROOFTOP""",1990-07-16,3,2014_leak
39137,"""5 Mutton Ln, East Weymouth, MA 02189, USA""",42.194899,-70.929616,"""ROOFTOP""",1990-07-17,3,2014_leak
39061,"""25 Rucille Ave, Weymouth, MA 02188, USA""",42.202484,-70.967551,"""ROOFTOP""",1990-07-17,3,2014_leak
39131,"""35 Great Republic Ave, South Weymouth, MA 02190, USA""",42.17501,-70.943895,"""ROOFTOP""",1990-07-18,3,2014_leak
39095,"""157 Pearl St, North Weymouth, MA 02191, USA""",42.237394,-70.947202,"""ROOFTOP""",1990-07-31,3,2014_leak
39093,"""209 Idlewell Blvd, Weymouth, MA 02188, USA""",42.233128,-70.954007,"""ROOFTOP""",1990-08-01,3,2014_leak
39092,"""11 Saunders St, North Weymouth, MA 02191, USA""",42.242002,-70.959862,"""ROOFTOP""",1990-08-06,3,2014_leak
43866,"""Massachusetts, USA""",42.407211,-71.382437,"""APPROXIMATE""",1990-09-12,3,2014_leak
43865,"""Massachusetts, USA""",42.407211,-71.382437,"""APPROXIMATE""",1990-10-02,3,2014_leak
42479,"""52 Sewall St, Somerville, MA 02145, USA""",42.393455,-71.092296,"""RANGE_INTERPOLATED""",1990-10-22,3,2014_leak
43797,"""Massachusetts, USA""",42.407211,-71.382437,"""APPROXIMATE""",1990-10-22,3,2014_leak
43799,"""Massachusetts, USA""",42.407211,-71.382437,"""APPROXIMATE""",1990-10-30,3,2014_leak
39769,"""Washington St @ Plymouth Rd, Braintree, MA 02184, USA""",42.179969,-71.014675,"""APPROXIMATE""",1990-11-27,3,2014_leak
43634,"""Massachusetts, USA""",42.407211,-71.382437,"""APPROXIMATE""",1990-12-06,3,2014_leak
93170,"""Brookside Dr, Newport, TN 37821, USA""",35.942449,-83.173947,"""GEOMETRIC_CENTER""",1990-12-19,3,2014_leak
93176,"""4 Thorndike St, Reading, MA 01867, USA""",42.529307,-71.098502,"""RANGE_INTERPOLATED""",1991-02-28,3,2014_leak
93178,"""17 Hartwell Ave, Lexington, MA 02421, USA""",42.475245,-71.254915,"""ROOFTOP""",1991-03-07,3,2014_leak
39077,"""514 Broad St, Weymouth, MA 02188, USA""",42.217825,-70.939313,"""ROOFTOP""",1991-05-07,3,2014_leak
93878,"""Rock St, Newmarket, NH 03857, USA""",43.078381,-70.937412,"""GEOMETRIC_CENTER""",1991-05-20,3,2014_leak
39557,"""265 N Main St, Cohasset, MA 02025, USA""",42.243449,-70.818894,"""ROOFTOP""",1991-06-14,3,2014_leak
41546,"""2 Mayfair St, Lynn, MA 01904, USA""",42.491195,-70.958522,"""ROOFTOP""",1991-08-16,3,2014_leak
44044,"""6 Clark Rd, Hingham, MA 02043, USA""",42.235496,-70.881597,"""RANGE_INTERPOLATED""",1991-08-28,3,2014_leak
41944,"""27 Squanto Rd, Woburn, MA 01801, USA""",42.461348,-71.199674,"""ROOFTOP""",1991-08-29,3,2014_leak
42089,"""51 Mystic Valley Pkwy, Winchester, MA 01890, USA""",42.445171,-71.137351,"""ROOFTOP""",1991-09-10,3,2014_leak
42441,"""14 Grove St, Reading, MA 01867, USA""",42.532575,-71.119358,"""RANGE_INTERPOLATED""",1991-09-13,3,2014_leak
93918,"""47 W Main St, Ware, MA 01082, USA""",42.260501,-72.245408,"""RANGE_INTERPOLATED""",1991-10-01,3,2014_leak
43857,"""Massachusetts, USA""",42.407211,-71.382437,"""APPROXIMATE""",1991-10-29,3,2014_leak
93203,"""115 Woodside Rd, Sudbury, MA 01776, USA""",42.347203,-71.410334,"""ROOFTOP""",1991-11-06,3,2014_leak
42241,"""Bent Rd, Sudbury, MA 01776, USA""",42.367321,-71.446051,"""GEOMETRIC_CENTER""",1991-11-06,3,2014_leak
41517,"""15 Ma Mar Ave, Midland, TX 79705, USA""",32.011174,-102.119717,"""RANGE_INTERPOLATED""",1991-12-13,3,2014_leak
41541,"""155 Lynnfield St, Lynn, MA 01904, USA""",42.489385,-70.967582,"""ROOFTOP""",1991-12-15,3,2014_leak
41446,"""Massachusetts, USA""",42.407211,-71.382437,"""APPROXIMATE""",1991-12-26,3,2014_leak
93219,"""Massachusetts, USA""",42.407211,-71.382437,"""APPROXIMATE""",1992-01-03,3,2014_leak
93221,"""43 Martin Bates St, Dedham, MA 02026, USA""",42.246739,-71.180116,"""RANGE_INTERPOLATED""",1992-01-09,3,2014_leak
42619,"""102 Boyd St, Watertown, MA 02472, USA""",42.360342,-71.190142,"""RANGE_INTERPOLATED""",1992-02-15,3,2014_leak
42835,"""Mel, Igarap\u00e9 do Meio - MA, Brazil""",-3.633333,-45.116667,"""APPROXIMATE""",1992-02-27,3,2014_leak
43871,"""Massachusetts, USA""",42.407211,-71.382437,"""APPROXIMATE""",1992-03-16,3,2014_leak
38861,"""117 Dudley River Rd, Southbridge, MA 01550, USA""",42.065487,-72.00279,"""RANGE_INTERPOLATED""",1992-03-18,3,2014_leak
40757,"""614 Gallivan Blvd, Dorchester, MA 02122, USA""",42.283593,-71.050793,"""ROOFTOP""",1992-03-19,2,2014_leak
39070,"""605 Broad St, East Weymouth, MA 02189, USA""",42.216251,-70.934436,"""ROOFTOP""",1992-04-21,3,2014_leak
42311,"""656 Boston Post Rd, Sudbury, MA 01776, USA""",42.361081,-71.44229,"""ROOFTOP""",1992-05-14,3,2014_leak
43662,"""22 Jackson St, Ayer, MA 01432, USA""",42.564937,-71.587342,"""ROOFTOP""",1992-05-19,3,2014_leak
41243,"""Massachusetts, USA""",42.407211,-71.382437,"""APPROXIMATE""",1992-05-29,3,2014_leak
41240,"""Massachusetts, USA""",42.407211,-71.382437,"""APPROXIMATE""",1992-06-02,3,2014_leak
42432,"""Massachusetts, USA""",42.407211,-71.382437,"""APPROXIMATE""",1992-06-17,3,2014_leak
42428,"""72 Woburn St, Reading, MA 01867, USA""",42.523747,-71.106713,"""RANGE_INTERPOLATED""",1992-06-18,3,2014_leak
41311,"""131 Selma St, Boston, MA 02128, USA""",42.390186,-71.003854,"""RANGE_INTERPOLATED""",1992-06-25,3,2014_leak
43195,"""Massachusetts, USA""",42.407211,-71.382437,"""APPROXIMATE""",1992-06-29,3,2014_leak
41820,"""Massachusetts, USA""",42.407211,-71.382437,"""APPROXIMATE""",1992-07-01,3,2014_leak
41822,"""Massachusetts, USA""",42.407211,-71.382437,"""APPROXIMATE""",1992-07-08,3,2014_leak
41360,"""40 Perley Ave, Peabody, MA 01960, USA""",42.547424,-71.027767,"""ROOFTOP""",1992-07-15,3,2014_leak
39206,"""83 Westgate Rd, Wellesley, MA 02481, USA""",42.309778,-71.304201,"""ROOFTOP""",1992-07-23,3,2014_leak
39974,"""114 Thornton St, Boston, MA 02119, USA""",42.323136,-71.091185,"""ROOFTOP""",1992-07-24,3,2014_leak
40008,"""83 Blue Hill Avenue, Roxbury, MA 02119, USA""",42.322462,-71.077323,"""ROOFTOP""",1992-07-30,3,2014_leak
39207,"""5 Dean Rd, Wellesley Hills, MA 02481, USA""",42.325488,-71.275402,"""ROOFTOP""",1992-08-03,3,2014_leak
93970,"""Massachusetts, USA""",42.407211,-71.382437,"""APPROXIMATE""",1992-10-08,3,2014_leak
39314,"""Franklin St @ Payne St, Quincy, MA 02169, USA""",42.239655,-71.00318,"""APPROXIMATE""",1992-10-23,3,2014_leak
39306,"""53 Suomi Rd, Quincy, MA 02169, USA""",42.245726,-71.018552,"""ROOFTOP""",1992-10-27,3,2014_leak
41527,"""198 Fays Ave, Lynn, MA 01904, USA""",42.492916,-70.94384,"""ROOFTOP""",1992-12-20,3,2014_leak
41147,"""48 Stanley Rd, Swampscott, MA 01907, USA""",42.480375,-70.892193,"""ROOFTOP""",1992-12-22,3,2014_leak
41990,"""363 Lexington St, Woburn, MA 01801, USA""",42.454175,-71.190824,"""RANGE_INTERPOLATED""",1992-12-30,3,2014_leak
93297,"""Massachusetts, USA""",42.407211,-71.382437,"""APPROXIMATE""",1993-02-03,3,2014_leak
41153,"""974 Humphrey St, Swampscott, MA 01907, USA""",42.477211,-70.891642,"""ROOFTOP""",1993-02-06,3,2014_leak
93300,"""Massachusetts, USA""",42.407211,-71.382437,"""APPROXIMATE""",1993-02-11,3,2014_leak
40917,"""Boston Logan International Airport, 1 Harborside Dr, Boston, MA 02128, USA""",42.365613,-71.00956,"""APPROXIMATE""",1993-02-15,3,2014_leak
93305,"""Massachusetts, USA""",42.407211,-71.382437,"""APPROXIMATE""",1993-03-02,3,2014_leak
41458,"""Massachusetts, USA""",42.407211,-71.382437,"""APPROXIMATE""",1993-03-02,3,2014_leak
42649,"""E Lombard St, Baltimore, MD, USA""",39.291949,-76.554111,"""GEOMETRIC_CENTER""",1993-03-03,3,2014_leak
39588,"""73 Brook Hill Rd, Milton, MA 02186, USA""",42.267213,-71.071683,"""ROOFTOP""",1993-03-31,3,2014_leak
43858,"""Massachusetts, USA""",42.407211,-71.382437,"""APPROXIMATE""",1993-04-14,3,2014_leak
39587,"""Brook Rd, Milton, MA 02186, USA""",42.260016,-71.068218,"""GEOMETRIC_CENTER""",1993-04-14,3,2014_leak
120040,"""8 Williams Ct, Weymouth, MA 02188, USA""",42.21909,-70.96516,"""ROOFTOP""",1993-04-18,3,2014_leak
40322,"""143 E Cottage St, Boston, MA 02125, USA""",42.320842,-71.06344,"""ROOFTOP""",1993-05-16,3,2014_leak
42522,"""3 Columbus St, Providence, RI 02908, USA""",41.848557,-71.431731,"""RANGE_INTERPOLATED""",1993-05-21,3,2014_leak
41918,"""167 Bridge St, Beverly, MA 01915, USA""",42.553915,-70.904724,"""ROOFTOP""",1993-06-02,3,2014_leak
94007,"""70 Glendale St, Weymouth, MA 02188, USA""",42.219341,-70.957681,"""ROOFTOP""",1993-06-03,3,2014_leak
39100,"""467 Main St, South Weymouth, MA 02190, USA""",42.190987,-70.956084,"""ROOFTOP""",1993-06-08,3,2014_leak
39713,"""5 Mann St, Braintree, MA 02184, USA""",42.175906,-71.005097,"""ROOFTOP""",1993-06-16,3,2014_leak
40982,"""Columbus Ave, Holyoke, MA 01040, USA""",42.205453,-72.63406,"""GEOMETRIC_CENTER""",1993-07-30,3,2014_leak
94043,"""Massachusetts, USA""",42.407211,-71.382437,"""APPROXIMATE""",1993-08-02,3,2014_leak
93331,"""Massachusetts, USA""",42.407211,-71.382437,"""APPROXIMATE""",1993-08-11,3,2014_leak
94062,"""1576 Main St, Leicester, MA 01524, USA""",42.246351,-71.934923,"""RANGE_INTERPOLATED""",1993-08-13,3,2014_leak
43427,"""533 Lexington Rd, Concord, MA 01742, USA""",42.45958,-71.33009,"""ROOFTOP""",1993-08-13,3,2014_leak
41637,"""79 Carter Rd, Lynn, MA 01904, USA""",42.481412,-70.955303,"""ROOFTOP""",1993-08-13,3,2014_leak
41847,"""14 Eastern Point Rd, Gloucester, MA 01930, USA""",42.602525,-70.655214,"""ROOFTOP""",1993-09-28,3,2014_leak
41673,"""517 Essex St, Lynn, MA 01902, USA""",42.466983,-70.947499,"""ROOFTOP""",1993-10-04,3,2014_leak
94605,"""490 Worcester St, Wellesley Hills, MA 02481, USA""",42.31121,-71.277335,"""ROOFTOP""",1993-11-29,3,2014_leak
42157,"""384 Forest Glen, West Springfield, MA 01089, USA""",42.124856,-72.665881,"""RANGE_INTERPOLATED""",1993-12-09,3,2014_leak
39961,"""51 Hawthorne St, Roxbury, MA 02119, USA""",42.32411,-71.092988,"""ROOFTOP""",1993-12-17,3,2014_leak
41466,"""Massachusetts, USA""",42.407211,-71.382437,"""APPROXIMATE""",1993-12-31,3,2014_leak
41461,"""Phillip Pl, Midland, TX 79707, USA""",32.009156,-102.148887,"""GEOMETRIC_CENTER""",1994-01-02,3,2014_leak
39905,"""Massachusetts, USA""",42.407211,-71.382437,"""APPROXIMATE""",1994-03-24,3,2014_leak
39952,"""25 Whittier St, Boston, MA 02120, USA""",42.333885,-71.088648,"""ROOFTOP""",1994-04-22,3,2014_leak
93524,"""Massachusetts, USA""",42.407211,-71.382437,"""APPROXIMATE""",1994-04-22,3,2014_leak
39338,"""9 Avalon Ave, Quincy, MA 02169, USA""",42.248028,-70.974961,"""ROOFTOP""",1994-05-02,3,2014_leak
94180,"""Massachusetts, USA""",42.407211,-71.382437,"""APPROXIMATE""",1994-05-02,3,2014_leak
39330,"""21 S Walnut St, Quincy, MA 02169, USA""",42.247226,-70.996071,"""ROOFTOP""",1994-05-04,3,2014_leak
39344,"""139 Elm St, Stoneham, MA 02180, USA""",42.490294,-71.087696,"""ROOFTOP""",1994-05-09,3,2014_leak
39385,"""50 Hughes St, Quincy, MA 02169, USA""",42.231532,-71.004236,"""ROOFTOP""",1994-05-12,3,2014_leak
39383,"""436 Sea St, Quincy, MA 02169, USA""",42.26195,-70.982311,"""RANGE_INTERPOLATED""",1994-05-17,3,2014_leak
39851,"""Massachusetts, USA""",42.407211,-71.382437,"""APPROXIMATE""",1994-05-17,3,2014_leak
118919,"""6 Warren St, North Brookfield, MA 01535, USA""",42.276146,-72.086755,"""RANGE_INTERPOLATED""",1994-05-26,3,2014_leak
39368,"""Massachusetts, USA""",42.407211,-71.382437,"""APPROXIMATE""",1994-05-26,3,2014_leak
94174,"""323 Main St, Barre, MA 01005, USA""",42.379749,-72.107899,"""RANGE_INTERPOLATED""",1994-05-27,3,2014_leak
39366,"""241 Beale St, Quincy, MA 02170, USA""",42.26197,-71.024581,"""RANGE_INTERPOLATED""",1994-05-29,3,2014_leak
94196,"""Massachusetts, USA""",42.407211,-71.382437,"""APPROXIMATE""",1994-06-07,3,2014_leak
39362,"""54 Wayland St, Dorchester, MA 02125, USA""",42.313498,-71.074204,"""ROOFTOP""",1994-06-07,3,2014_leak
39423,"""690 Willard St, Quincy, MA 02169, USA""",42.23367,-71.028277,"""ROOFTOP""",1994-06-15,3,2014_leak
39288,"""1 Exeter St, Boston, MA 02116, USA""",42.352759,-71.081297,"""ROOFTOP""",1994-06-16,3,2014_leak
39359,"""64 Piermont St, Quincy, MA 02170, USA""",42.262457,-71.032405,"""ROOFTOP""",1994-06-21,3,2014_leak
39292,"""Fenno Street Tennis Courts, 49 Fenno St, Quincy, MA 02170, USA""",42.264988,-71.011982,"""APPROXIMATE""",1994-06-23,3,2014_leak
39576,"""Massachusetts, USA""",42.407211,-71.382437,"""APPROXIMATE""",1994-06-25,3,2014_leak
38956,"""Everett St, Southbridge, MA 01550, USA""",42.070941,-72.034242,"""GEOMETRIC_CENTER""",1994-07-08,3,2014_leak
38863,"""70 Central St, Southbridge, MA 01550, USA""",42.076817,-72.032465,"""RANGE_INTERPOLATED""",1994-07-17,3,2014_leak
93412,"""40 Commonwealth Rd, Watertown, MA 02472, USA""",42.375754,-71.165992,"""ROOFTOP""",1994-07-25,3,2014_leak
39321,"""10 Holyoke St, Boston, MA 02116, USA""",42.34448,-71.0778,"""ROOFTOP""",1994-08-02,3,2014_leak
39278,"""68 Aberdeen Rd, Quincy, MA 02171, USA""",42.295102,-71.010192,"""ROOFTOP""",1994-08-08,3,2014_leak
41650,"""7 Falls St, Lynn, MA 01902, USA""",42.48287,-70.934088,"""ROOFTOP""",1994-08-11,3,2014_leak
41651,"""37 Atkins Ave, Lynn, MA 01904, USA""",42.486082,-70.94902,"""ROOFTOP""",1994-08-11,3,2014_leak
41480,"""Massachusetts, USA""",42.407211,-71.382437,"""APPROXIMATE""",1994-09-09,3,2014_leak
41422,"""Massachusetts, USA""",42.407211,-71.382437,"""APPROXIMATE""",1994-09-16,3,2014_leak
42174,"""276 Wall St, West Bridgewater, MA 02379, USA""",42.01094,-70.979622,"""RANGE_INTERPOLATED""",1994-09-16,3,2014_leak
43831,"""45 Harvey Steel Rd, Boston, MA 02134, USA""",42.355551,-71.139871,"""RANGE_INTERPOLATED""",1994-10-03,3,2014_leak
41036,"""Commonwealth Ave, Bunker Hill, WV 25413, USA""",39.326066,-78.055309,"""GEOMETRIC_CENTER""",1994-10-11,3,2014_leak
41402,"""103 Central St, Peabody, MA 01960, USA""",42.53306,-70.926158,"""ROOFTOP""",1994-10-12,3,2014_leak
38877,"""Massachusetts, USA""",42.407211,-71.382437,"""APPROXIMATE""",1994-10-21,3,2014_leak
41642,"""284 Chatham St, Lynn, MA 01902, USA""",42.475166,-70.938854,"""ROOFTOP""",1994-10-24,3,2014_leak
42249,"""9 Audubon Rd, Wakefield, MA 01880, USA""",42.515601,-71.039112,"""ROOFTOP""",1994-11-12,3,2014_leak
93459,"""15 Leo St, Fall River, MA 02723, USA""",41.685883,-71.125279,"""RANGE_INTERPOLATED""",1994-11-21,3,2014_leak
43133,"""921 N Main St, Midland, TX 79701, USA""",32.006646,-102.074932,"""ROOFTOP""",1994-12-19,3,2014_leak
39970,"""14 Warren Pl, Boston, MA 02119, USA""",42.328032,-71.081851,"""ROOFTOP""",1994-12-22,3,2014_leak
39539,"""Massachusetts, USA""",42.407211,-71.382437,"""APPROXIMATE""",1995-01-05,3,2014_leak
43183,"""33 Winter St, Nahant, MA 01908, USA""",42.425927,-70.917102,"""ROOFTOP""",1995-01-09,3,2014_leak
93483,"""15 Kennedy Park, Woburn, MA 01801, USA""",42.475969,-71.175851,"""ROOFTOP""",1995-01-17,3,2014_leak
42039,"""Highland Ave, Winchester, MA 01890, USA""",42.454178,-71.128605,"""GEOMETRIC_CENTER""",1995-01-23,3,2014_leak
42686,"""Ravine Rd, Casper, WY 82604, USA""",42.808285,-106.41758,"""GEOMETRIC_CENTER""",1995-01-26,3,2014_leak
93507,"""Massachusetts, USA""",42.407211,-71.382437,"""APPROXIMATE""",1995-02-17,3,2014_leak
39260,"""Massachusetts, USA""",42.407211,-71.382437,"""APPROXIMATE""",1995-03-06,3,2014_leak
43829,"""Massachusetts, USA""",42.407211,-71.382437,"""APPROXIMATE""",1995-03-29,3,2014_leak
94351,"""384 Broad St, Weymouth, MA 02188, USA""",42.218222,-70.946787,"""ROOFTOP""",1995-04-10,3,2014_leak
41112,"""15 Beach St, Quincy, MA 02170, USA""",42.268406,-71.015736,"""ROOFTOP""",1995-04-12,3,2014_leak
39783,"""336 Plain St, Braintree, MA 02184, USA""",42.198878,-70.990729,"""ROOFTOP""",1995-04-12,3,2014_leak
43187,"""Massachusetts, USA""",42.407211,-71.382437,"""APPROXIMATE""",1995-04-27,3,2014_leak
41682,"""510 Eastern Ave, Lynn, MA 01902, USA""",42.481192,-70.936627,"""ROOFTOP""",1995-05-04,3,2014_leak
94376,"""Massachusetts, USA""",42.407211,-71.382437,"""APPROXIMATE""",1995-05-09,3,2014_leak
39680,"""Massachusetts, USA""",42.407211,-71.382437,"""APPROXIMATE""",1995-05-09,3,2014_leak
94370,"""Rock Hill Ln, Springfield, MA 01118, USA""",42.100429,-72.506828,"""GEOMETRIC_CENTER""",1995-05-09,3,2014_leak
40405,"""40 Lonsdale St, Dorchester Center, MA 02124, USA""",42.29056,-71.061342,"""ROOFTOP""",1995-05-16,3,2014_leak
93598,"""Massachusetts, USA""",42.407211,-71.382437,"""APPROXIMATE""",1995-05-16,3,2014_leak
94385,"""109 Msgr Patrick J Lydon Way, Boston, MA 02124, USA""",42.2894,-71.057636,"""ROOFTOP""",1995-05-16,3,2014_leak
94390,"""Beechwood St, Cohasset, MA 02025, USA""",42.219357,-70.808219,"""GEOMETRIC_CENTER""",1995-05-17,3,2014_leak
41701,"""15 Gilbert St, Lynn, MA 01902, USA""",42.480963,-70.934609,"""ROOFTOP""",1995-05-18,3,2014_leak
39609,"""Massachusetts, USA""",42.407211,-71.382437,"""APPROXIMATE""",1995-05-18,3,2014_leak
93609,"""Massachusetts, USA""",42.407211,-71.382437,"""APPROXIMATE""",1995-05-23,3,2014_leak
41732,"""Massachusetts, USA""",42.407211,-71.382437,"""APPROXIMATE""",1995-05-25,3,2014_leak
43672,"""Massachusetts, USA""",42.407211,-71.382437,"""APPROXIMATE""",1995-05-25,3,2014_leak
94414,"""Massachusetts, USA""",42.407211,-71.382437,"""APPROXIMATE""",1995-06-07,3,2014_leak
40930,"""Boston Logan International Airport, 1 Harborside Dr, Boston, MA 02128, USA""",42.365613,-71.00956,"""APPROXIMATE""",1995-06-08,3,2014_leak
94424,"""Boston Logan International Airport, 1 Harborside Dr, Boston, MA 02128, USA""",42.365613,-71.00956,"""APPROXIMATE""",1995-06-12,3,2014_leak
39168,"""65 Livermore Rd, Wellesley Hills, MA 02481, USA""",42.304266,-71.269184,"""ROOFTOP""",1995-06-14,3,2014_leak
93664,"""Massachusetts, USA""",42.407211,-71.382437,"""APPROXIMATE""",1995-06-15,3,2014_leak
39584,"""126 Reedsdale Rd, Milton, MA 02186, USA""",42.254387,-71.076845,"""ROOFTOP""",1995-06-26,3,2014_leak
43188,"""Massachusetts, USA""",42.407211,-71.382437,"""APPROXIMATE""",1995-06-27,3,2014_leak
42222,"""1191 W Wall St, Midland, TX 79701, USA""",31.996235,-102.086738,"""RANGE_INTERPOLATED""",1995-06-29,3,2014_leak
39297,"""143 Fenno St, Quincy, MA 02170, USA""",42.267189,-71.008443,"""ROOFTOP""",1995-07-03,3,2014_leak
43355,"""Massachusetts, USA""",42.407211,-71.382437,"""APPROXIMATE""",1995-07-06,3,2014_leak
42571,"""1415-1418 Commonwealth Avenue, Boston, MA 02134, USA""",42.348521,-71.139106,"""ROOFTOP""",1995-07-07,3,2014_leak
40498,"""Massachusetts, USA""",42.407211,-71.382437,"""APPROXIMATE""",1995-07-07,3,2014_leak
42211,"""Massachusetts, USA""",42.407211,-71.382437,"""APPROXIMATE""",1995-07-11,3,2014_leak
40566,"""Massachusetts, USA""",42.407211,-71.382437,"""APPROXIMATE""",1995-07-13,3,2014_leak
40510,"""24 Algonquin St, Dorchester Center, MA 02124, USA""",42.297516,-71.074211,"""ROOFTOP""",1995-07-26,3,2014_leak
40509,"""Massachusetts, USA""",42.407211,-71.382437,"""APPROXIMATE""",1995-07-26,3,2014_leak
43363,"""Massachusetts, USA""",42.407211,-71.382437,"""APPROXIMATE""",1995-07-26,3,2014_leak
39043,"""11 Castle Rd, East Weymouth, MA 02189, USA""",42.20912,-70.943101,"""ROOFTOP""",1995-07-26,3,2014_leak
94509,"""6-8 Lane Park, Brighton, MA 02135, USA""",42.341907,-71.15926,"""ROOFTOP""",1995-07-31,3,2014_leak
40636,"""Massachusetts, USA""",42.407211,-71.382437,"""APPROXIMATE""",1995-08-10,3,2014_leak
40021,"""4057 Washington St, Roslindale, MA 02131, USA""",42.291056,-71.12364,"""ROOFTOP""",1995-08-14,3,2014_leak
94539,"""Boston Post Rd W, Marlborough, MA, USA""",42.340919,-71.581452,"""GEOMETRIC_CENTER""",1995-08-15,3,2014_leak
94564,"""973 Blue Hill Avenue, Boston, MA 02124, USA""",42.291204,-71.089526,"""ROOFTOP""",1995-08-21,3,2014_leak
40709,"""57 Virginia St, Boston, MA 02125, USA""",42.314937,-71.068988,"""RANGE_INTERPOLATED""",1995-08-22,3,2014_leak
40726,"""16 Jerome St, Boston, MA 02125, USA""",42.314685,-71.064058,"""RANGE_INTERPOLATED""",1995-08-24,3,2014_leak
40725,"""706-714 Dudley St, Dorchester, MA 02125, USA""",42.318462,-71.067787,"""ROOFTOP""",1995-08-24,3,2014_leak
40720,"""591 Dudley St, Dorchester, MA 02125, USA""",42.320296,-71.071813,"""ROOFTOP""",1995-08-24,3,2014_leak
40719,"""555-559 Dudley St, Boston, MA 02125, USA""",42.321169,-71.072488,"""ROOFTOP""",1995-08-24,3,2014_leak
40661,"""61a Dix St, Boston, MA 02122, USA""",42.295635,-71.058689,"""ROOFTOP""",1995-08-30,3,2014_leak
38886,"""Massachusetts, USA""",42.407211,-71.382437,"""APPROXIMATE""",1995-09-07,3,2014_leak
40684,"""2 Sargent St, Dorchester, MA 02125, USA""",42.317321,-71.074219,"""ROOFTOP""",1995-09-07,3,2014_leak
38909,"""84 Leo Turo Way, Worcester, MA 01604, USA""",42.263513,-71.792008,"""RANGE_INTERPOLATED""",1995-09-12,3,2014_leak
40596,"""70 Mayfield St, Dorchester, MA 02125, USA""",42.316674,-71.060025,"""ROOFTOP""",1995-09-12,3,2014_leak
40593,"""Mayfield St, Dorchester, MA 02125, USA""",42.316668,-71.059067,"""GEOMETRIC_CENTER""",1995-09-12,3,2014_leak
94636,"""Wollaston Terrace, Dorchester Center, MA 02124, USA""",42.286881,-71.083125,"""GEOMETRIC_CENTER""",1995-09-14,3,2014_leak
41058,"""Boston Logan International Airport, 1 Harborside Dr, Boston, MA 02128, USA""",42.365613,-71.00956,"""APPROXIMATE""",1995-09-29,3,2014_leak
39737,"""247 Shaw St, Braintree, MA 02184, USA""",42.227421,-70.975985,"""ROOFTOP""",1995-09-29,3,2014_leak
43161,"""Massachusetts, USA""",42.407211,-71.382437,"""APPROXIMATE""",1995-10-10,3,2014_leak
38984,"""Massachusetts, USA""",42.407211,-71.382437,"""APPROXIMATE""",1995-10-18,3,2014_leak
42258,"""Wall St, Worcester, MA 01604, USA""",42.258713,-71.785919,"""GEOMETRIC_CENTER""",1995-11-06,3,2014_leak
93793,"""26 Old Tavern Rd, Wayland, MA 01778, USA""",42.32026,-71.348414,"""ROOFTOP""",1995-11-07,3,2014_leak
96528,"""377 Ralph Talbot St, South Weymouth, MA 02190, USA""",42.178518,-70.931275,"""ROOFTOP""",1995-12-20,3,2014_leak
95558,"""137 N Main St, Midland, TX 79701, USA""",31.998404,-102.074415,"""RANGE_INTERPOLATED""",1996-01-14,3,2014_leak
96297,"""84 Lynnfield St, Peabody, MA 01960, USA""",42.516506,-70.951341,"""ROOFTOP""",1996-01-24,3,2014_leak
97020,"""10 Pequot Rd, Peabody, MA 01960, USA""",42.557911,-71.031727,"""ROOFTOP""",1996-03-04,3,2014_leak
100193,"""9 Carter St, Providence, RI 02907, USA""",41.800145,-71.427255,"""RANGE_INTERPOLATED""",1996-03-15,3,2014_leak
97390,"""143 Main St, Reading, MA 01867, USA""",42.508794,-71.103865,"""ROOFTOP""",1996-04-17,3,2014_leak
98018,"""Massachusetts, USA""",42.407211,-71.382437,"""APPROXIMATE""",1996-04-19,3,2014_leak
98053,"""591 Pond St, South Weymouth, MA 02190, USA""",42.150117,-70.953914,"""ROOFTOP""",1996-04-23,3,2014_leak
100709,"""949 Centre St, Newton, MA 02459, USA""",42.340845,-71.192607,"""RANGE_INTERPOLATED""",1996-04-26,3,2014_leak
97810,"""6 Shackford Rd, Reading, MA 01867, USA""",42.515593,-71.100097,"""RANGE_INTERPOLATED""",1996-04-30,3,2014_leak
97813,"""323 South St, Reading, MA 01867, USA""",42.505233,-71.106959,"""ROOFTOP""",1996-05-01,3,2014_leak
97814,"""362 South St, Reading, MA 01867, USA""",42.505496,-71.104333,"""RANGE_INTERPOLATED""",1996-05-01,3,2014_leak
97866,"""41 Prescott St, Reading, MA 01867, USA""",42.520541,-71.109999,"""RANGE_INTERPOLATED""",1996-05-07,3,2014_leak
97868,"""171 Prescott St, Reading, MA 01867, USA""",42.517713,-71.116522,"""RANGE_INTERPOLATED""",1996-05-07,3,2014_leak
98553,"""104 Leo Turo Way, Worcester, MA 01604, USA""",42.26365,-71.791978,"""RANGE_INTERPOLATED""",1996-05-08,3,2014_leak
98148,"""109 Bartlett St, Somerville, MA 02145, USA""",42.395289,-71.100604,"""ROOFTOP""",1996-05-09,3,2014_leak
98251,"""246 Woburn St, Reading, MA 01867, USA""",42.519756,-71.116605,"""RANGE_INTERPOLATED""",1996-05-14,3,2014_leak
98477,"""238 Lynnfield St, Lynn, MA 01904, USA""",42.493454,-70.971779,"""ROOFTOP""",1996-05-15,3,2014_leak
98741,"""Massachusetts, USA""",42.407211,-71.382437,"""APPROXIMATE""",1996-05-16,3,2014_leak
100143,"""Massachusetts, USA""",42.407211,-71.382437,"""APPROXIMATE""",1996-05-23,3,2014_leak
98783,"""Massachusetts, USA""",42.407211,-71.382437,"""APPROXIMATE""",1996-05-23,3,2014_leak
98781,"""Massachusetts, USA""",42.407211,-71.382437,"""APPROXIMATE""",1996-05-24,3,2014_leak
98865,"""28 Stone Ave, Winchester, MA 01890, USA""",42.461476,-71.124887,"""ROOFTOP""",1996-05-28,3,2014_leak
98893,"""Massachusetts, USA""",42.407211,-71.382437,"""APPROXIMATE""",1996-05-29,3,2014_leak
99022,"""Massachusetts, USA""",42.407211,-71.382437,"""APPROXIMATE""",1996-05-29,3,2014_leak
99212,"""11 Sherwood Rd, Winchester, MA 01890, USA""",42.439002,-71.130313,"""ROOFTOP""",1996-06-05,3,2014_leak
99866,"""Massachusetts, USA""",42.407211,-71.382437,"""APPROXIMATE""",1996-06-07,3,2014_leak
99871,"""Massachusetts, USA""",42.407211,-71.382437,"""APPROXIMATE""",1996-06-07,3,2014_leak
99449,"""Mystic Ave, Winchester, MA 01890, USA""",42.447293,-71.13613,"""GEOMETRIC_CENTER""",1996-06-10,3,2014_leak
100700,"""Massachusetts, USA""",42.407211,-71.382437,"""APPROXIMATE""",1996-06-10,3,2014_leak
101032,"""Meadow Rd, Hingham, MA 02043, USA""",42.256234,-70.852918,"""GEOMETRIC_CENTER""",1996-06-10,3,2014_leak
99842,"""Massachusetts, USA""",42.407211,-71.382437,"""APPROXIMATE""",1996-06-11,3,2014_leak
100268,"""22 Philip Rd, Lexington, MA 02421, USA""",42.423256,-71.215761,"""ROOFTOP""",1996-06-12,3,2014_leak
99450,"""29 East St, Winchester, MA 01890, USA""",42.468622,-71.136059,"""ROOFTOP""",1996-06-12,3,2014_leak
99513,"""Massachusetts, USA""",42.407211,-71.382437,"""APPROXIMATE""",1996-06-13,3,2014_leak
99520,"""J.P. Sweelinckstraat 55, 1443 MA Purmerend, Netherlands""",52.506662,4.970166,"""RANGE_INTERPOLATED""",1996-06-14,2,2014_leak
99746,"""1705 Commonwealth Avenue, Boston, MA 02135, USA""",42.341962,-71.147441,"""ROOFTOP""",1996-06-17,3,2014_leak
99727,"""39 Swanton St, Winchester, MA 01890, USA""",42.459406,-71.131011,"""ROOFTOP""",1996-06-17,3,2014_leak
99725,"""Calumet Rd, Winchester, MA 01890, USA""",42.44858,-71.15099,"""GEOMETRIC_CENTER""",1996-06-17,3,2014_leak
100696,"""Massachusetts, USA""",42.407211,-71.382437,"""APPROXIMATE""",1996-06-18,3,2014_leak
100534,"""Massachusetts, USA""",42.407211,-71.382437,"""APPROXIMATE""",1996-06-20,3,2014_leak
100109,"""Massachusetts, USA""",42.407211,-71.382437,"""APPROXIMATE""",1996-06-21,3,2014_leak
100038,"""94 Church St, Winchester, MA 01890, USA""",42.448561,-71.147848,"""ROOFTOP""",1996-06-21,3,2014_leak
100650,"""114 Fletcher St, Worcester, MA 01604, USA""",42.262003,-71.77366,"""RANGE_INTERPOLATED""",1996-06-27,3,2014_leak
100401,"""8 Salisbury St, Winchester, MA 01890, USA""",42.44855,-71.153471,"""RANGE_INTERPOLATED""",1996-06-27,3,2014_leak
100804,"""Cabot St, Pensacola, FL 32534, USA""",30.56739,-87.26556,"""GEOMETRIC_CENTER""",1996-06-27,3,2014_leak
228961,"""Massachusetts, USA""",42.407211,-71.382437,"""APPROXIMATE""",1996-06-28,3,2014_leak
100786,"""J.P. Sweelinckstraat 25, 1443 MA Purmerend, Netherlands""",52.506906,4.969818,"""ROOFTOP""",1996-07-01,3,2014_leak
100795,"""JP Nagar Main Street, Jeeva Nagar, Sri Sivasakthi Nagar, Coimbatore, Tamil Nadu 641035, India""",11.053448,77.008509,"""GEOMETRIC_CENTER""",1996-07-02,3,2014_leak
100579,"""Main St @ Lincolnshire Way, Winchester, MA 01890, USA""",42.444966,-71.134644,"""APPROXIMATE""",1996-07-03,3,2014_leak
100862,"""Massachusetts, USA""",42.407211,-71.382437,"""APPROXIMATE""",1996-07-09,3,2014_leak
101135,"""Marsh Ave, Worcester, MA 01605, USA""",42.290095,-71.778616,"""GEOMETRIC_CENTER""",1996-07-10,3,2014_leak
101282,"""Massachusetts, USA""",42.407211,-71.382437,"""APPROXIMATE""",1996-07-17,3,2014_leak
101709,"""Massachusetts, USA""",42.407211,-71.382437,"""APPROXIMATE""",1996-07-18,3,2014_leak
101768,"""210 Concord Rd, Sudbury, MA 01776, USA""",42.375734,-71.414959,"""ROOFTOP""",1996-07-18,3,2014_leak
102034,"""Massachusetts, USA""",42.407211,-71.382437,"""APPROXIMATE""",1996-07-22,3,2014_leak
101817,"""91 Newport Rd, Hull, MA 02045, USA""",42.279937,-70.874962,"""RANGE_INTERPOLATED""",1996-07-23,3,2014_leak
101641,"""Massachusetts, USA""",42.407211,-71.382437,"""APPROXIMATE""",1996-07-25,3,2014_leak
101854,"""59 Abington St, Hingham, MA 02043, USA""",42.168622,-70.920636,"""ROOFTOP""",1996-07-30,3,2014_leak
103180,"""Spring St, Gloucester, MA 01930, USA""",42.615883,-70.657424,"""GEOMETRIC_CENTER""",1996-08-07,3,2014_leak
103181,"""41 Pierce St, Rochester, MA 02770, USA""",41.765631,-70.786358,"""RANGE_INTERPOLATED""",1996-08-07,3,2014_leak
103175,"""80 Beach St, Rockport, MA 01966, USA""",42.663412,-70.624425,"""RANGE_INTERPOLATED""",1996-08-07,3,2014_leak
103178,"""Spring St, Gloucester, MA 01930, USA""",42.615883,-70.657424,"""GEOMETRIC_CENTER""",1996-08-07,3,2014_leak
103179,"""Beach St, Rockport, MA 01966, USA""",42.660381,-70.622943,"""GEOMETRIC_CENTER""",1996-08-07,3,2014_leak
103183,"""Massachusetts, USA""",42.407211,-71.382437,"""APPROXIMATE""",1996-08-07,3,2014_leak
105445,"""Albion Ct, Gloucester, MA 01930, USA""",42.664312,-70.667726,"""GEOMETRIC_CENTER""",1996-08-09,3,2014_leak
102872,"""169 Commercial St, Braintree, MA 02184, USA""",42.221185,-70.975004,"""ROOFTOP""",1996-08-09,3,2014_leak
105458,"""102 Plain St, Braintree, MA 02184, USA""",42.196665,-71.000229,"""ROOFTOP""",1996-08-14,3,2014_leak
103165,"""344 Central Ave, Marshfield, MA 02050, USA""",42.158783,-70.705907,"""RANGE_INTERPOLATED""",1996-08-14,3,2014_leak
103148,"""Pearl St, Braintree, MA 02184, USA""",42.203121,-70.995245,"""GEOMETRIC_CENTER""",1996-08-15,3,2014_leak
103160,"""32 Grove St, Marshfield, MA 02050, USA""",42.110651,-70.699368,"""RANGE_INTERPOLATED""",1996-08-15,3,2014_leak
103161,"""23 Grove St, Marshfield, MA 02050, USA""",42.110621,-70.699197,"""RANGE_INTERPOLATED""",1996-08-15,3,2014_leak
105491,"""12 Water St, Marshfield, MA 02050, USA""",42.080785,-70.644627,"""RANGE_INTERPOLATED""",1996-08-16,3,2014_leak
102967,"""Whittier St, Lynn, MA 01902, USA""",42.466826,-70.953133,"""GEOMETRIC_CENTER""",1996-08-21,3,2014_leak
105503,"""Massachusetts, USA""",42.407211,-71.382437,"""APPROXIMATE""",1996-08-23,3,2014_leak
105662,"""1660 Washington St, Braintree, MA 02184, USA""",42.182133,-71.012734,"""ROOFTOP""",1996-08-26,3,2014_leak
102977,"""19 Abbott St, Lynn, MA 01905, USA""",42.46229,-70.971959,"""ROOFTOP""",1996-08-26,3,2014_leak
103515,"""65 Webster St, Arlington, MA 02474, USA""",42.415667,-71.144945,"""ROOFTOP""",1996-08-26,3,2014_leak
103050,"""41 Callender St, Boston, MA 02124, USA""",42.288986,-71.080393,"""RANGE_INTERPOLATED""",1996-08-27,3,2014_leak
103289,"""28 Congress St, Stoneham, MA 02180, USA""",42.47621,-71.104456,"""ROOFTOP""",1996-08-29,3,2014_leak
105670,"""Union Ln, Rockport, MA 01966, USA""",42.657503,-70.622575,"""GEOMETRIC_CENTER""",1996-08-29,3,2014_leak
108652,"""37 Vine St, Lynn, MA 01905, USA""",42.461349,-70.959445,"""ROOFTOP""",1996-08-29,3,2014_leak
103136,"""89 Green St, Rockport, MA 01966, USA""",42.678911,-70.624099,"""RANGE_INTERPOLATED""",1996-08-30,3,2014_leak
103276,"""75 Elm St, Woburn, MA 01801, USA""",42.506956,-71.161533,"""ROOFTOP""",1996-08-30,3,2014_leak
105416,"""20 Tremont St, Weymouth, MA 02188, USA""",42.220883,-70.965901,"""ROOFTOP""",1996-09-03,3,2014_leak
103615,"""Massachusetts, USA""",42.407211,-71.382437,"""APPROXIMATE""",1996-09-04,3,2014_leak
105410,"""76 Phillips St, Weymouth, MA 02188, USA""",42.21948,-70.963185,"""ROOFTOP""",1996-09-04,3,2014_leak
103717,"""Massachusetts, USA""",42.407211,-71.382437,"""APPROXIMATE""",1996-09-04,3,2014_leak
118940,"""Massachusetts, USA""",42.407211,-71.382437,"""APPROXIMATE""",1996-09-04,3,2014_leak
103735,"""265 Park St, Dorchester Center, MA 02124, USA""",42.297257,-71.066035,"""ROOFTOP""",1996-09-05,3,2014_leak
104282,"""599 Walnut St, Lynn, MA 01905, USA""",42.474232,-70.990725,"""ROOFTOP""",1996-09-05,3,2014_leak
103645,"""106 Cummings Park Dr, Woburn, MA 01801, USA""",42.499236,-71.125141,"""RANGE_INTERPOLATED""",1996-09-05,3,2014_leak
105380,"""31 Presidents Rd, Weymouth, MA 02188, USA""",42.224884,-70.954711,"""ROOFTOP""",1996-09-05,3,2014_leak
104284,"""666 Walnut St, Lynn, MA 01905, USA""",42.474052,-70.993931,"""ROOFTOP""",1996-09-05,3,2014_leak
103643,"""Massachusetts, USA""",42.407211,-71.382437,"""APPROXIMATE""",1996-09-05,3,2014_leak
110503,"""64 Wilson Ave, Weymouth, MA 02188, USA""",42.223963,-70.952952,"""ROOFTOP""",1996-09-05,3,2014_leak
105387,"""68 Wilson Ave, Weymouth, MA 02188, USA""",42.223809,-70.953073,"""ROOFTOP""",1996-09-05,3,2014_leak
103783,"""31 Walnut St, Arlington, MA 02476, USA""",42.418663,-71.169856,"""RANGE_INTERPOLATED""",1996-09-06,3,2014_leak
105390,"""327 Commercial St, Weymouth, MA 02188, USA""",42.224346,-70.959536,"""ROOFTOP""",1996-09-06,3,2014_leak
103964,"""Massachusetts, USA""",42.407211,-71.382437,"""APPROXIMATE""",1996-09-06,3,2014_leak
105375,"""16 Coolidge Ave, Weymouth, MA 02188, USA""",42.224164,-70.954184,"""ROOFTOP""",1996-09-06,3,2014_leak
103979,"""6 Cushing St, Hull, MA 02045, USA""",42.304483,-70.909671,"""RANGE_INTERPOLATED""",1996-09-06,3,2014_leak
103965,"""139 Bro Joseph A Herran Way, Boston, MA 02132, USA""",42.27706,-71.166564,"""RANGE_INTERPOLATED""",1996-09-06,3,2014_leak
105389,"""399 Commercial St, Weymouth, MA 02188, USA""",42.22468,-70.95618,"""ROOFTOP""",1996-09-06,3,2014_leak
103916,"""Web Rd, Georgetown, MA 01833, USA""",42.746797,-70.949843,"""GEOMETRIC_CENTER""",1996-09-06,3,2014_leak
105645,"""234 Long Pond Rd, Housatonic, MA 01236, USA""",42.232269,-73.381154,"""RANGE_INTERPOLATED""",1996-09-09,3,2014_leak
103977,"""830 Nantasket Ave, Hull, MA 02045, USA""",42.303698,-70.884152,"""RANGE_INTERPOLATED""",1996-09-09,3,2014_leak
104328,"""417 Lynnway, Lynn, MA 01901, USA""",42.456723,-70.952888,"""ROOFTOP""",1996-09-09,3,2014_leak
103933,"""329 Montvale Ave, Woburn, MA 01801, USA""",42.479614,-71.119016,"""RANGE_INTERPOLATED""",1996-09-09,3,2014_leak
103975,"""1745 Commercial St, Weymouth, MA 02189, USA""",42.222425,-70.917143,"""RANGE_INTERPOLATED""",1996-09-10,3,2014_leak
103972,"""88 Saning Rd, Weymouth, MA 02191, USA""",42.23713,-70.946718,"""ROOFTOP""",1996-09-10,3,2014_leak
104287,"""5 Margin St, Lynn, MA 01905, USA""",42.458208,-70.976708,"""ROOFTOP""",1996-09-11,3,2014_leak
104003,"""10 Sutton St, Weymouth, MA 02188, USA""",42.222845,-70.94611,"""ROOFTOP""",1996-09-11,3,2014_leak
104029,"""Mel, Igarap\u00e9 do Meio - MA, Brazil""",-3.633333,-45.116667,"""APPROXIMATE""",1996-09-12,3,2014_leak
104190,"""Massachusetts, USA""",42.407211,-71.382437,"""APPROXIMATE""",1996-09-12,3,2014_leak
104026,"""58 Sears Ave, Melrose, MA 02176, USA""",42.4671,-71.073873,"""ROOFTOP""",1996-09-12,3,2014_leak
104136,"""Massachusetts, USA""",42.407211,-71.382437,"""APPROXIMATE""",1996-09-12,3,2014_leak
104011,"""Massachusetts, USA""",42.407211,-71.382437,"""APPROXIMATE""",1996-09-12,3,2014_leak
105628,"""122 Webster St, Marshfield, MA 02050, USA""",42.074377,-70.673891,"""RANGE_INTERPOLATED""",1996-09-12,3,2014_leak
104742,"""133 Lynnfield St, Lynn, MA 01904, USA""",42.48855,-70.965934,"""ROOFTOP""",1996-09-16,3,2014_leak
104202,"""Massachusetts, USA""",42.407211,-71.382437,"""APPROXIMATE""",1996-09-16,3,2014_leak
105469,"""12 Hanian Dr, Weymouth, MA 02189, USA""",42.227522,-70.933558,"""RANGE_INTERPOLATED""",1996-09-19,3,2014_leak
105538,"""21 Putnam St, Weymouth, MA 02189, USA""",42.218087,-70.932031,"""ROOFTOP""",1996-09-20,3,2014_leak
104784,"""Massachusetts, USA""",42.407211,-71.382437,"""APPROXIMATE""",1996-09-24,3,2014_leak
104782,"""Massachusetts, USA""",42.407211,-71.382437,"""APPROXIMATE""",1996-09-24,3,2014_leak
104453,"""Massachusetts, USA""",42.407211,-71.382437,"""APPROXIMATE""",1996-09-24,3,2014_leak
105481,"""398 East St, Weymouth, MA 02189, USA""",42.225406,-70.929633,"""ROOFTOP""",1996-09-24,3,2014_leak
105543,"""82 Vine St, Weymouth, MA 02188, USA""",42.214969,-70.96072,"""ROOFTOP""",1996-09-24,3,2014_leak
105480,"""494 East St, East Weymouth, MA 02189, USA""",42.222815,-70.927257,"""ROOFTOP""",1996-09-24,3,2014_leak
108133,"""180 North St, Weymouth, MA 02191, USA""",42.243746,-70.943761,"""RANGE_INTERPOLATED""",1996-09-25,3,2014_leak
105764,"""200 Lynnfield St, Lynn, MA 01904, USA""",42.490993,-70.971816,"""ROOFTOP""",1996-09-26,3,2014_leak
104865,"""17 Brae Rd, Weymouth, MA 02191, USA""",42.24277,-70.939561,"""ROOFTOP""",1996-09-26,3,2014_leak
105304,"""110 Thornton St, Roxbury, MA 02119, USA""",42.323199,-71.090906,"""ROOFTOP""",1996-10-01,3,2014_leak
106251,"""400 W Wall St, Midland, TX 79701, USA""",31.99765,-102.078308,"""ROOFTOP""",1996-10-01,3,2014_leak
104853,"""Massachusetts, USA""",42.407211,-71.382437,"""APPROXIMATE""",1996-10-01,3,2014_leak
105611,"""171 Sea St, Weymouth, MA 02191, USA""",42.245288,-70.951204,"""ROOFTOP""",1996-10-02,3,2014_leak
106242,"""21 Wal-Mart Plaza, Clinton, NJ 08809, USA""",40.629076,-74.919428,"""RANGE_INTERPOLATED""",1996-10-02,3,2014_leak
106235,"""144 Wall St, Quincy, MA 02169, USA""",42.268479,-70.950534,"""RANGE_INTERPOLATED""",1996-10-03,3,2014_leak
105595,"""Massachusetts, USA""",42.407211,-71.382437,"""APPROXIMATE""",1996-10-04,3,2014_leak
106228,"""735 W Wall St, Midland, TX 79701, USA""",31.997315,-102.082076,"""RANGE_INTERPOLATED""",1996-10-07,3,2014_leak
105562,"""37 King Ave, Weymouth, MA 02188, USA""",42.211924,-70.958508,"""ROOFTOP""",1996-10-07,3,2014_leak
108257,"""Massachusetts, USA""",42.407211,-71.382437,"""APPROXIMATE""",1996-10-07,3,2014_leak
106991,"""5 Barrett Rd, Peabody, MA 01960, USA""",42.53698,-70.936384,"""ROOFTOP""",1996-10-08,3,2014_leak
105839,"""215 Wall St, Bridgewater, MA 02324, USA""",42.009637,-70.978401,"""RANGE_INTERPOLATED""",1996-10-08,3,2014_leak
106167,"""Massachusetts, USA""",42.407211,-71.382437,"""APPROXIMATE""",1996-10-08,3,2014_leak
108251,"""151 Mill St, Randolph, MA 02368, USA""",42.162984,-71.032363,"""RANGE_INTERPOLATED""",1996-10-10,3,2014_leak
107164,"""120 Grant St, Weymouth, MA 02189, USA""",42.2189,-70.919749,"""ROOFTOP""",1996-10-10,3,2014_leak
106008,"""897 Chestnut St, Bristol, RI 02809, USA""",41.687714,-71.26217,"""RANGE_INTERPOLATED""",1996-10-11,3,2014_leak
108252,"""Massachusetts, USA""",42.407211,-71.382437,"""APPROXIMATE""",1996-10-11,3,2014_leak
108062,"""61 Joseph A Fern Ct, Weymouth, MA 02189, USA""",42.21069,-70.939493,"""RANGE_INTERPOLATED""",1996-10-15,3,2014_leak
108064,"""99 Lorraine St, Weymouth, MA 02189, USA""",42.206373,-70.919689,"""ROOFTOP""",1996-10-16,3,2014_leak
106149,"""149 Park Ave, Arlington, MA 02476, USA""",42.420965,-71.182872,"""RANGE_INTERPOLATED""",1996-10-17,3,2014_leak
108700,"""203 W Mill St, Medfield, MA 02052, USA""",42.200468,-71.322801,"""RANGE_INTERPOLATED""",1996-10-17,3,2014_leak
105998,"""119 Wall St, Middleborough, MA 02346, USA""",41.89685,-70.82166,"""RANGE_INTERPOLATED""",1996-10-17,3,2014_leak
106036,"""47 Cedar St, Boston, MA 02119, USA""",42.325067,-71.090983,"""RANGE_INTERPOLATED""",1996-10-17,3,2014_leak
106004,"""Massachusetts, USA""",42.407211,-71.382437,"""APPROXIMATE""",1996-10-17,3,2014_leak
108123,"""37 Westminster Rd, Weymouth, MA 02189, USA""",42.199736,-70.933656,"""ROOFTOP""",1996-10-17,3,2014_leak
106399,"""60 Mutton Ln, Weymouth, MA 02189, USA""",42.196515,-70.930153,"""ROOFTOP""",1996-10-18,3,2014_leak
106400,"""35 Mutton Ln, Weymouth, MA 02189, USA""",42.195614,-70.930308,"""ROOFTOP""",1996-10-18,3,2014_leak
106041,"""Massachusetts, USA""",42.407211,-71.382437,"""APPROXIMATE""",1996-10-18,3,2014_leak
108719,"""27 Briarfield Rd, Milton, MA 02186, USA""",42.264115,-71.091877,"""ROOFTOP""",1996-10-25,3,2014_leak
108080,"""82 Circuit Rd, Weymouth, MA 02190, USA""",42.185556,-70.937587,"""RANGE_INTERPOLATED""",1996-10-25,3,2014_leak
106653,"""Massachusetts, USA""",42.407211,-71.382437,"""APPROXIMATE""",1996-10-30,3,2014_leak
118904,"""8 Ellis Ave, Dudley, MA 01571, USA""",42.041799,-71.897364,"""RANGE_INTERPOLATED""",1996-11-01,3,2014_leak
108050,"""305 Central St, South Weymouth, MA 02190, USA""",42.167832,-70.940956,"""ROOFTOP""",1996-11-01,3,2014_leak
108078,"""10 Abbott St, South Weymouth, MA 02190, USA""",42.158278,-70.958644,"""ROOFTOP""",1996-11-03,3,2014_leak
108141,"""9 Central St, Weymouth, MA 02190, USA""",42.172584,-70.953053,"""RANGE_INTERPOLATED""",1996-11-04,3,2014_leak
108695,"""27 Mill St, Tewksbury, MA 01876, USA""",42.599756,-71.192727,"""RANGE_INTERPOLATED""",1996-11-06,3,2014_leak
108098,"""279 Randolph St, South Weymouth, MA 02190, USA""",42.169155,-70.97237,"""ROOFTOP""",1996-11-06,3,2014_leak
108102,"""156 Randolph St, South Weymouth, MA 02190, USA""",42.169502,-70.964902,"""ROOFTOP""",1996-11-06,3,2014_leak
108096,"""41 Hollis St, South Weymouth, MA 02190, USA""",42.16876,-70.961043,"""ROOFTOP""",1996-11-06,3,2014_leak
108694,"""105 Mill St, Tewksbury, MA 01876, USA""",42.599947,-71.191756,"""RANGE_INTERPOLATED""",1996-11-06,3,2014_leak
120044,"""Brook Rd @ Blue Hills Pkwy, Milton, MA 02186, USA""",42.262612,-71.092934,"""APPROXIMATE""",1996-11-07,3,2014_leak
108266,"""Massachusetts, USA""",42.407211,-71.382437,"""APPROXIMATE""",1996-11-07,3,2014_leak
108267,"""Massachusetts, USA""",42.407211,-71.382437,"""APPROXIMATE""",1996-11-07,3,2014_leak
108153,"""187 Elmer Rd, South Weymouth, MA 02190, USA""",42.143481,-70.964846,"""ROOFTOP""",1996-11-08,3,2014_leak
106911,"""47 W Main St, Dudley, MA 01571, USA""",42.047215,-71.892004,"""RANGE_INTERPOLATED""",1996-11-12,3,2014_leak
108233,"""Massachusetts, USA""",42.407211,-71.382437,"""APPROXIMATE""",1996-11-12,3,2014_leak
108028,"""1141 Pleasant St, East Weymouth, MA 02189, USA""",42.205889,-70.923905,"""ROOFTOP""",1996-11-14,3,2014_leak
108037,"""1203 Main St, Weymouth, MA 02190, USA""",42.163173,-70.955258,"""RANGE_INTERPOLATED""",1996-11-19,3,2014_leak
107268,"""63 South Burma Avenue, Gillette, WY 82716, USA""",44.295869,-105.51948,"""RANGE_INTERPOLATED""",1996-11-20,3,2014_leak
107711,"""Cypress Lakes Dr, Raleigh, NC 27615, USA""",35.900907,-78.658884,"""GEOMETRIC_CENTER""",1996-11-21,3,2014_leak
107734,"""219 Paradise Rd, Swampscott, MA 01907, USA""",42.475615,-70.913736,"""ROOFTOP""",1996-12-03,3,2014_leak
108000,"""Massachusetts, USA""",42.407211,-71.382437,"""APPROXIMATE""",1996-12-19,3,2014_leak
108291,"""117 Dimmock St, Quincy, MA 02169, USA""",42.251585,-71.009968,"""ROOFTOP""",1996-12-19,3,2014_leak
107993,"""Massachusetts, USA""",42.407211,-71.382437,"""APPROXIMATE""",1996-12-20,3,2014_leak
108418,"""8 Upland Rd, Beverly, MA 01915, USA""",42.54609,-70.897918,"""ROOFTOP""",1996-12-26,3,2014_leak
108749,"""South Ave, Winthrop, MA 02152, USA""",42.373312,-70.980444,"""GEOMETRIC_CENTER""",1997-01-02,3,2014_leak
108580,"""Massachusetts, USA""",42.407211,-71.382437,"""APPROXIMATE""",1997-01-06,3,2014_leak
109184,"""44 Lind St, Quincy, MA 02169, USA""",42.259106,-70.969722,"""RANGE_INTERPOLATED""",1997-01-09,3,2014_leak
109190,"""Massachusetts, USA""",42.407211,-71.382437,"""APPROXIMATE""",1997-01-10,3,2014_leak
108898,"""Massachusetts, USA""",42.407211,-71.382437,"""APPROXIMATE""",1997-01-14,3,2014_leak
108953,"""Massachusetts, USA""",42.407211,-71.382437,"""APPROXIMATE""",1997-01-15,3,2014_leak
109179,"""51 Bicknell St, Dorchester, MA 02121, USA""",42.298232,-71.082789,"""ROOFTOP""",1997-01-22,3,2014_leak
109276,"""Massachusetts, USA""",42.407211,-71.382437,"""APPROXIMATE""",1997-01-31,3,2014_leak
109444,"""71 Fenno St, Quincy, MA 02170, USA""",42.265643,-71.011111,"""ROOFTOP""",1997-02-04,3,2014_leak
109443,"""63 Fenno St, Quincy, MA 02170, USA""",42.265788,-71.011509,"""ROOFTOP""",1997-02-04,3,2014_leak
109400,"""Massachusetts, USA""",42.407211,-71.382437,"""APPROXIMATE""",1997-02-05,3,2014_leak
109724,"""335 Centre St, Jamaica Plain, MA 02130, USA""",42.322858,-71.10534,"""ROOFTOP""",1997-02-07,3,2014_leak
109692,"""11 Spring St, Beverly, MA 01915, USA""",42.56157,-70.869586,"""ROOFTOP""",1997-02-14,3,2014_leak
109711,"""21 River St, Billerica, MA 01821, USA""",42.559858,-71.272221,"""ROOFTOP""",1997-02-18,3,2014_leak
110009,"""9 Clark Ave, Beverly, MA 01915, USA""",42.556384,-70.873274,"""ROOFTOP""",1997-02-28,3,2014_leak
110149,"""Massachusetts, USA""",42.407211,-71.382437,"""APPROXIMATE""",1997-03-10,3,2014_leak
110291,"""7 Deer Cove Rd, Swampscott, MA 01907, USA""",42.469345,-70.894833,"""ROOFTOP""",1997-03-20,3,2014_leak
110361,"""175 Conant St, Bridgewater, MA 02324, USA""",41.974531,-70.965605,"""ROOFTOP""",1997-03-25,3,2014_leak
110519,"""814 Worcester St, Wellesley, MA 02482, USA""",42.305233,-71.308124,"""ROOFTOP""",1997-03-27,3,2014_leak
110556,"""469 Columbian St, Weymouth, MA 02190, USA""",42.181196,-70.970519,"""ROOFTOP""",1997-04-03,3,2014_leak
110623,"""Massachusetts, USA""",42.407211,-71.382437,"""APPROXIMATE""",1997-04-07,3,2014_leak
111132,"""Do Qui Dr, Acton, MA 01720, USA""",42.525486,-71.424024,"""GEOMETRIC_CENTER""",1997-04-11,3,2014_leak
110783,"""Massachusetts, USA""",42.407211,-71.382437,"""APPROXIMATE""",1997-04-15,3,2014_leak
110929,"""Massachusetts, USA""",42.407211,-71.382437,"""APPROXIMATE""",1997-04-16,3,2014_leak
111558,"""62 Dockray St, Quincy, MA 02169, USA""",42.257594,-71.031048,"""RANGE_INTERPOLATED""",1997-04-16,3,2014_leak
112023,"""Massachusetts, USA""",42.407211,-71.382437,"""APPROXIMATE""",1997-04-16,3,2014_leak
111489,"""52 Brook Rd, Quincy, MA 02169, USA""",42.242473,-71.008543,"""ROOFTOP""",1997-04-22,3,2014_leak
111494,"""274 Common St, Quincy, MA 02169, USA""",42.244405,-71.022429,"""ROOFTOP""",1997-04-23,3,2014_leak
111015,"""Massachusetts, USA""",42.407211,-71.382437,"""APPROXIMATE""",1997-04-23,3,2014_leak
111976,"""Massachusetts, USA""",42.407211,-71.382437,"""APPROXIMATE""",1997-04-25,3,2014_leak
111112,"""5 E Berkeley St, Boston, MA 02118, USA""",42.344625,-71.068036,"""RANGE_INTERPOLATED""",1997-04-26,3,2014_leak
111566,"""223 Centre St, Boston, MA 02124, USA""",42.293009,-71.064121,"""RANGE_INTERPOLATED""",1997-04-28,3,2014_leak
111463,"""150 Essex St, Brookline, MA 02446, USA""",42.349752,-71.111193,"""RANGE_INTERPOLATED""",1997-04-30,3,2014_leak
111467,"""77 South Ave, Whitman, MA 02382, USA""",42.081058,-70.934526,"""RANGE_INTERPOLATED""",1997-05-01,3,2014_leak
112035,"""53 Simmons Ave, Whitman, MA 02382, USA""",42.09051,-70.919282,"""ROOFTOP""",1997-05-05,3,2014_leak
112039,"""154 Cranberry Rd, Buzzards Bay, MA 02532, USA""",41.753094,-70.602202,"""RANGE_INTERPOLATED""",1997-05-06,3,2014_leak
112038,"""Massachusetts, USA""",42.407211,-71.382437,"""APPROXIMATE""",1997-05-06,3,2014_leak
111995,"""50 Vincent St, Whitman, MA 02382, USA""",42.087753,-70.910113,"""RANGE_INTERPOLATED""",1997-05-07,3,2014_leak
111996,"""Regal St, Whitman, MA 02382, USA""",42.087978,-70.916943,"""GEOMETRIC_CENTER""",1997-05-07,3,2014_leak
111997,"""Massachusetts, USA""",42.407211,-71.382437,"""APPROXIMATE""",1997-05-07,3,2014_leak
118590,"""Massachusetts, USA""",42.407211,-71.382437,"""APPROXIMATE""",1997-05-08,3,2014_leak
118930,"""34 Old Connecticut Path, Framingham, MA 01701, USA""",42.301524,-71.407354,"""RANGE_INTERPOLATED""",1997-05-08,3,2014_leak
112002,"""Franklin St, Boston, MA 02134, USA""",42.358932,-71.133131,"""GEOMETRIC_CENTER""",1997-05-08,3,2014_leak
112795,"""25 Clarendon St, Malden, MA 02148, USA""",42.416949,-71.064027,"""ROOFTOP""",1997-05-09,3,2014_leak
112011,"""Robert St, Osceola, IA 50213, USA""",41.141072,-93.833703,"""GEOMETRIC_CENTER""",1997-05-12,3,2014_leak
112010,"""14 Robert Ave, Whitman, MA 02382, USA""",42.084253,-70.938517,"""RANGE_INTERPOLATED""",1997-05-12,3,2014_leak
111933,"""Berry St, Quincy, MI 49082, USA""",41.939465,-84.889919,"""GEOMETRIC_CENTER""",1997-05-12,3,2014_leak
111919,"""162 Washington Terrace, Whitman, MA 02382, USA""",42.090773,-70.94684,"""RANGE_INTERPOLATED""",1997-05-13,3,2014_leak
111920,"""Washington St, Farmington, WA 99128, USA""",47.089277,-117.047146,"""GEOMETRIC_CENTER""",1997-05-13,3,2014_leak
120039,"""Myrtle Ave, Washington, NJ 07882, USA""",40.764412,-74.974299,"""GEOMETRIC_CENTER""",1997-05-14,3,2014_leak
112868,"""31 Dartmouth St, Quincy, MA 02169, USA""",42.245256,-70.991283,"""ROOFTOP""",1997-05-15,3,2014_leak
112389,"""Massachusetts, USA""",42.407211,-71.382437,"""APPROXIMATE""",1997-05-22,3,2014_leak
112773,"""294 W Squantum St, Quincy, MA 02171, USA""",42.268364,-71.036791,"""ROOFTOP""",1997-05-22,3,2014_leak
112260,"""Massachusetts, USA""",42.407211,-71.382437,"""APPROXIMATE""",1997-05-23,3,2014_leak
112373,"""43 Valley Rd, Milton, MA 02186, USA""",42.266509,-71.080759,"""ROOFTOP""",1997-05-25,3,2014_leak
112905,"""542 Washington St, Brookline, MA 02446, USA""",42.33844,-71.128727,"""RANGE_INTERPOLATED""",1997-05-28,3,2014_leak
113531,"""E Broad Ave, Spokane, WA 99207, USA""",47.701388,-117.385677,"""GEOMETRIC_CENTER""",1997-05-29,3,2014_leak
113586,"""Massachusetts, USA""",42.407211,-71.382437,"""APPROXIMATE""",1997-06-02,3,2014_leak
113577,"""Massachusetts, USA""",42.407211,-71.382437,"""APPROXIMATE""",1997-06-02,3,2014_leak
113578,"""Massachusetts, USA""",42.407211,-71.382437,"""APPROXIMATE""",1997-06-02,3,2014_leak
113056,"""Massachusetts, USA""",42.407211,-71.382437,"""APPROXIMATE""",1997-06-03,3,2014_leak
112800,"""121 Greenfield Rd, Mattapan, MA 02126, USA""",42.268929,-71.103291,"""ROOFTOP""",1997-06-05,3,2014_leak
112900,"""74 Chapman St, Quincy, MA 02170, USA""",42.267286,-71.018436,"""ROOFTOP""",1997-06-05,3,2014_leak
113617,"""Massachusetts, USA""",42.407211,-71.382437,"""APPROXIMATE""",1997-06-06,3,2014_leak
112993,"""Massachusetts, USA""",42.407211,-71.382437,"""APPROXIMATE""",1997-06-09,3,2014_leak
121570,"""147 Brook St, Quincy, MA 02170, USA""",42.263322,-71.026161,"""ROOFTOP""",1997-06-09,3,2014_leak
113606,"""Massachusetts, USA""",42.407211,-71.382437,"""APPROXIMATE""",1997-06-09,3,2014_leak
113613,"""44 Black Rock Rd, Cohasset, MA 02025, USA""",42.261735,-70.828251,"""ROOFTOP""",1997-06-11,3,2014_leak
113000,"""Massachusetts, USA""",42.407211,-71.382437,"""APPROXIMATE""",1997-06-11,3,2014_leak
113048,"""Massachusetts, USA""",42.407211,-71.382437,"""APPROXIMATE""",1997-06-11,3,2014_leak
113623,"""Massachusetts, USA""",42.407211,-71.382437,"""APPROXIMATE""",1997-06-13,3,2014_leak
113637,"""Jerusalem Rd, Cohasset, MA 02025, USA""",42.263516,-70.826904,"""GEOMETRIC_CENTER""",1997-06-19,3,2014_leak
113636,"""739 Jerusalem Rd, Cohasset, MA 02025, USA""",42.261064,-70.839573,"""ROOFTOP""",1997-06-19,3,2014_leak
114058,"""Massachusetts, USA""",42.407211,-71.382437,"""APPROXIMATE""",1997-06-24,3,2014_leak
114057,"""Massachusetts, USA""",42.407211,-71.382437,"""APPROXIMATE""",1997-06-24,3,2014_leak
114059,"""Massachusetts, USA""",42.407211,-71.382437,"""APPROXIMATE""",1997-06-24,3,2014_leak
116230,"""87 E Main St, West Brookfield, MA 01585, USA""",42.235165,-72.140935,"""RANGE_INTERPOLATED""",1997-06-25,3,2014_leak
113919,"""76 Farrell Rd, Lynn, MA 01905, USA""",42.465513,-70.9781,"""ROOFTOP""",1997-06-25,3,2014_leak
113766,"""King St, Cohasset, MA 02025, USA""",42.231834,-70.820765,"""GEOMETRIC_CENTER""",1997-06-27,3,2014_leak
113758,"""Beechwood Dr W, University Place, WA 98466, USA""",47.219654,-122.558015,"""GEOMETRIC_CENTER""",1997-06-27,3,2014_leak
113442,"""331 Freeport St, Boston, MA 02122, USA""",42.301375,-71.050525,"""RANGE_INTERPOLATED""",1997-06-30,3,2014_leak
113511,"""Grant Pl NE, Washington, DC 20019, USA""",38.900305,-76.950535,"""GEOMETRIC_CENTER""",1997-07-01,3,2014_leak
113703,"""419 Beechwood St, Cohasset, MA 02025, USA""",42.214615,-70.814115,"""ROOFTOP""",1997-07-01,3,2014_leak
113539,"""84 Lantz Ave, Whitman, MA 02382, USA""",42.073107,-70.940897,"""ROOFTOP""",1997-07-01,3,2014_leak
113720,"""498 Beechwood St, Cohasset, MA 02025, USA""",42.210602,-70.817692,"""ROOFTOP""",1997-07-01,3,2014_leak
113688,"""120 Doane St, Cohasset, MA 02025, USA""",42.213876,-70.822911,"""ROOFTOP""",1997-07-01,3,2014_leak
113507,"""185 Harvard St, Boston, MA 02124, USA""",42.29613,-71.083768,"""ROOFTOP""",1997-07-01,3,2014_leak
113717,"""463 Beechwood St, Cohasset, MA 02025, USA""",42.212678,-70.816875,"""ROOFTOP""",1997-07-01,3,2014_leak
113607,"""401 School St, Whitman, MA 02382, USA""",42.071437,-70.945097,"""RANGE_INTERPOLATED""",1997-07-01,3,2014_leak
113524,"""6 Cleveland St, Roxbury, MA 02119, USA""",42.325496,-71.080712,"""ROOFTOP""",1997-07-01,3,2014_leak
113701,"""404 Beechwood St, Cohasset, MA 02025, USA""",42.214048,-70.812886,"""ROOFTOP""",1997-07-01,3,2014_leak
113676,"""Church St, Cohasset, MA 02025, USA""",42.208035,-70.818975,"""GEOMETRIC_CENTER""",1997-07-01,3,2014_leak
113693,"""23 Hillside Dr, Cohasset, MA 02025, USA""",42.21109,-70.815126,"""ROOFTOP""",1997-07-02,3,2014_leak
113684,"""Massachusetts, USA""",42.407211,-71.382437,"""APPROXIMATE""",1997-07-02,3,2014_leak
114766,"""26 State Rd, Westport, MA 02790, USA""",41.678834,-71.113944,"""RANGE_INTERPOLATED""",1997-07-07,3,2014_leak
114144,"""14 Albemarle Ave, Lexington, MA 02420, USA""",42.430135,-71.193368,"""ROOFTOP""",1997-07-08,3,2014_leak
118579,"""419 N Rd, Westfield, MA 01085, USA""",42.185983,-72.74492,"""RANGE_INTERPOLATED""",1997-07-09,3,2014_leak
114205,"""Massachusetts, USA""",42.407211,-71.382437,"""APPROXIMATE""",1997-07-10,3,2014_leak
114195,"""67 Otis St, Cambridge, MA 02141, USA""",42.370425,-71.080658,"""RANGE_INTERPOLATED""",1997-07-10,3,2014_leak
114279,"""357 S Main St, Cohasset, MA 02025, USA""",42.225461,-70.793229,"""ROOFTOP""",1997-07-12,3,2014_leak
114303,"""1441 Do Qui Dr, Acton, MA 01720, USA""",42.525142,-71.42449,"""RANGE_INTERPOLATED""",1997-07-12,3,2014_leak
114275,"""431 S Main St, Cohasset, MA 02025, USA""",42.221725,-70.79123,"""ROOFTOP""",1997-07-12,3,2014_leak
114329,"""527 Newport Ave, Quincy, MA 02170, USA""",42.260163,-71.014328,"""ROOFTOP""",1997-07-12,3,2014_leak
114319,"""117 Beechwood St, Cohasset, MA 02025, USA""",42.225639,-70.801007,"""ROOFTOP""",1997-07-12,3,2014_leak
114310,"""26 Locust Rd, Cohasset, MA 02025, USA""",42.22859,-70.799379,"""ROOFTOP""",1997-07-12,3,2014_leak
114312,"""Chief Justice Cushing Hwy, Cohasset, MA 02025, USA""",42.228533,-70.810234,"""GEOMETRIC_CENTER""",1997-07-12,3,2014_leak
114272,"""380 Atlantic Ave, Cohasset, MA 02025, USA""",42.257799,-70.804444,"""ROOFTOP""",1997-07-12,3,2014_leak
114330,"""249 Temple St, Whitman, MA 02382, USA""",42.080949,-70.946475,"""ROOFTOP""",1997-07-12,3,2014_leak
114309,"""16 Locust Rd, Cohasset, MA 02025, USA""",42.22746,-70.799252,"""ROOFTOP""",1997-07-12,3,2014_leak
114313,"""Chief Justice Cushing Hwy, Cohasset, MA 02025, USA""",42.228533,-70.810234,"""GEOMETRIC_CENTER""",1997-07-12,3,2014_leak
114328,"""529 Newport Ave, Quincy, MA 02170, USA""",42.260104,-71.014229,"""ROOFTOP""",1997-07-12,3,2014_leak
116127,"""92 Dresser St, Southbridge, MA 01550, USA""",42.074599,-72.03806,"""RANGE_INTERPOLATED""",1997-07-14,3,2014_leak
115045,"""Massachusetts, USA""",42.407211,-71.382437,"""APPROXIMATE""",1997-07-21,3,2014_leak
115018,"""103 Belmont St, Weymouth, MA 02188, USA""",42.194433,-70.967558,"""ROOFTOP""",1997-07-28,3,2014_leak
114944,"""Massachusetts, USA""",42.407211,-71.382437,"""APPROXIMATE""",1997-07-28,3,2014_leak
115048,"""1066 Sea St, Quincy, MA 02169, USA""",42.267304,-70.958139,"""ROOFTOP""",1997-07-29,3,2014_leak
115217,"""38 Jarvis Ave, Hingham, MA 02043, USA""",42.260645,-70.899397,"""RANGE_INTERPOLATED""",1997-08-01,3,2014_leak
115343,"""12 Salisbury St, Winchester, MA 01890, USA""",42.448882,-71.154058,"""ROOFTOP""",1997-08-05,3,2014_leak
121460,"""33 Wynot Rd, Braintree, MA 02184, USA""",42.21397,-71.002973,"""ROOFTOP""",1997-08-10,3,2014_leak
115464,"""Massachusetts, USA""",42.407211,-71.382437,"""APPROXIMATE""",1997-08-11,3,2014_leak
115665,"""Salem St @ Main St, Wakefield, MA 01880, USA""",42.508058,-71.07102,"""APPROXIMATE""",1997-08-13,3,2014_leak
115560,"""156 Sea St, Quincy, MA 02169, USA""",42.260744,-70.994592,"""ROOFTOP""",1997-08-13,3,2014_leak
115568,"""87 Sohier St, Cohasset, MA 02025, USA""",42.242216,-70.811046,"""ROOFTOP""",1997-08-13,3,2014_leak
115615,"""Downer Ave, Hingham, MA 02043, USA""",42.25665,-70.899228,"""GEOMETRIC_CENTER""",1997-08-13,3,2014_leak
121472,"""217 Main St, Hingham, MA 02043, USA""",42.236584,-70.881878,"""RANGE_INTERPOLATED""",1997-08-13,3,2014_leak
115599,"""707 Main St, South Weymouth, MA 02190, USA""",42.181695,-70.956527,"""ROOFTOP""",1997-08-13,3,2014_leak
115547,"""31 Epping St, Weymouth, MA 02189, USA""",42.223491,-70.946215,"""ROOFTOP""",1997-08-13,3,2014_leak
115541,"""148 Downer Ave, Hingham, MA 02043, USA""",42.259018,-70.89674,"""ROOFTOP""",1997-08-13,3,2014_leak
115572,"""Massachusetts, USA""",42.407211,-71.382437,"""APPROXIMATE""",1997-08-13,3,2014_leak
115573,"""Massachusetts, USA""",42.407211,-71.382437,"""APPROXIMATE""",1997-08-13,3,2014_leak
115549,"""Massachusetts, USA""",42.407211,-71.382437,"""APPROXIMATE""",1997-08-13,3,2014_leak
115594,"""Dimmock St, Quincy, MA 02169, USA""",42.252473,-71.00817,"""GEOMETRIC_CENTER""",1997-08-13,3,2014_leak
115614,"""6 Daley Rd, Hingham, MA 02043, USA""",42.256984,-70.899671,"""RANGE_INTERPOLATED""",1997-08-13,3,2014_leak
115669,"""50 Orange St, Reading, MA 01867, USA""",42.528954,-71.096194,"""ROOFTOP""",1997-08-13,3,2014_leak
121467,"""629 Main St, Hingham, MA 02043, USA""",42.215838,-70.884897,"""RANGE_INTERPOLATED""",1997-08-15,3,2014_leak
121477,"""774 Main St, Hingham, MA 02043, USA""",42.204765,-70.883961,"""RANGE_INTERPOLATED""",1997-08-15,3,2014_leak
121447,"""Massachusetts, USA""",42.407211,-71.382437,"""APPROXIMATE""",1997-08-19,3,2014_leak
121563,"""272 Bridge St, North Weymouth, MA 02191, USA""",42.242934,-70.954575,"""ROOFTOP""",1997-08-25,3,2014_leak
116451,"""140 Fort Point Rd, North Weymouth, MA 02191, USA""",42.256982,-70.935209,"""ROOFTOP""",1997-08-26,3,2014_leak
117627,"""Boston Logan International Airport, 1 Harborside Dr, Boston, MA 02128, USA""",42.365613,-71.00956,"""APPROXIMATE""",1997-08-26,3,2014_leak
116474,"""Massachusetts, USA""",42.407211,-71.382437,"""APPROXIMATE""",1997-08-29,3,2014_leak
116385,"""14 Liberty St, Beverly, MA 01915, USA""",42.557697,-70.868565,"""ROOFTOP""",1997-09-03,3,2014_leak
116480,"""41 Herbert Rd, Braintree, MA 02184, USA""",42.212966,-71.014884,"""ROOFTOP""",1997-09-05,3,2014_leak
120011,"""Mill St, Adams, MA 01220, USA""",42.626557,-73.115073,"""GEOMETRIC_CENTER""",1997-09-08,3,2014_leak
117636,"""Boston Logan International Airport, 1 Harborside Dr, Boston, MA 02128, USA""",42.365613,-71.00956,"""APPROXIMATE""",1997-09-08,3,2014_leak
117637,"""Boston Logan International Airport, 1 Harborside Dr, Boston, MA 02128, USA""",42.365613,-71.00956,"""APPROXIMATE""",1997-09-08,3,2014_leak
116665,"""Massachusetts, USA""",42.407211,-71.382437,"""APPROXIMATE""",1997-09-09,3,2014_leak
116531,"""Massachusetts, USA""",42.407211,-71.382437,"""APPROXIMATE""",1997-09-09,3,2014_leak
119775,"""120 Summer St, Rockport, MA 01966, USA""",42.651861,-70.611406,"""RANGE_INTERPOLATED""",1997-09-18,3,2014_leak
117642,"""Massachusetts, USA""",42.407211,-71.382437,"""APPROXIMATE""",1997-09-22,3,2014_leak
117440,"""Massachusetts, USA""",42.407211,-71.382437,"""APPROXIMATE""",1997-09-23,3,2014_leak
117994,"""7 Norman-Mckinley Dr, Lexington, NC 27292, USA""",35.735511,-80.109936,"""RANGE_INTERPOLATED""",1997-09-24,3,2014_leak
117392,"""26 Wolcott Rd, Milton, MA 02186, USA""",42.238293,-71.119285,"""ROOFTOP""",1997-09-24,3,2014_leak
117962,"""90 North Rd, Bedford, MA 01730, USA""",42.498808,-71.284228,"""ROOFTOP""",1997-09-26,3,2014_leak
118024,"""Norma Dr, Azalea Park, FL 32807, USA""",28.551732,-81.309854,"""GEOMETRIC_CENTER""",1997-09-26,3,2014_leak
116978,"""35 Lake St, Arlington, MA 02474, USA""",42.405041,-71.144569,"""RANGE_INTERPOLATED""",1997-09-30,3,2014_leak
116974,"""Manning St, Medford, MA 02155, USA""",42.416257,-71.114654,"""GEOMETRIC_CENTER""",1997-09-30,3,2014_leak
117324,"""Massachusetts, USA""",42.407211,-71.382437,"""APPROXIMATE""",1997-10-15,3,2014_leak
117331,"""59 Buena Vista St, Devens, MA 01434, USA""",42.547268,-71.61176,"""RANGE_INTERPOLATED""",1997-10-15,3,2014_leak
119608,"""20 Faunce Rd, Boston, MA 02126, USA""",42.271426,-71.090979,"""ROOFTOP""",1997-12-09,3,2014_leak
118738,"""2 Stone Ave, Stoneham, MA 02180, USA""",42.470379,-71.081159,"""ROOFTOP""",1997-12-17,3,2014_leak
118831,"""12 Boyden Ave, Beverly, MA 01915, USA""",42.558248,-70.874584,"""ROOFTOP""",1997-12-17,3,2014_leak
118733,"""54 W Ferdinand St, Stoneham, MA 02180, USA""",42.473932,-71.08055,"""RANGE_INTERPOLATED""",1997-12-17,3,2014_leak
119071,"""Massachusetts, USA""",42.407211,-71.382437,"""APPROXIMATE""",1997-12-18,3,2014_leak
119174,"""Massachusetts, USA""",42.407211,-71.382437,"""APPROXIMATE""",1997-12-19,3,2014_leak
118996,"""Massachusetts, USA""",42.407211,-71.382437,"""APPROXIMATE""",1997-12-22,2,2014_leak
119383,"""Massachusetts, USA""",42.407211,-71.382437,"""APPROXIMATE""",1997-12-29,3,2014_leak
119348,"""117 Elm St, Stoneham, MA 02180, USA""",42.489196,-71.089685,"""ROOFTOP""",1997-12-31,3,2014_leak
119517,"""Massachusetts, USA""",42.407211,-71.382437,"""APPROXIMATE""",1998-01-05,3,2014_leak
119637,"""47 Bradbury St, Boston, MA 02134, USA""",42.358756,-71.131698,"""RANGE_INTERPOLATED""",1998-01-09,3,2014_leak
119684,"""Massachusetts, USA""",42.407211,-71.382437,"""APPROXIMATE""",1998-01-13,3,2014_leak
119821,"""Massachusetts, USA""",42.407211,-71.382437,"""APPROXIMATE""",1998-01-14,3,2014_leak
119902,"""Massachusetts, USA""",42.407211,-71.382437,"""APPROXIMATE""",1998-01-20,3,2014_leak
120037,"""62 Old Mill Ln, Plymouth, MA 02360, USA""",41.973759,-70.700003,"""RANGE_INTERPOLATED""",1998-01-23,3,2014_leak
120119,"""523 Humphrey St, Swampscott, MA 01907, USA""",42.467602,-70.90496,"""ROOFTOP""",1998-01-26,3,2014_leak
120248,"""11 Sherwood Rd, Stoneham, MA 02180, USA""",42.496956,-71.106105,"""ROOFTOP""",1998-01-29,3,2014_leak
120260,"""73 Fort Hill St, Hingham, MA 02043, USA""",42.233434,-70.905483,"""RANGE_INTERPOLATED""",1998-01-30,3,2014_leak
120366,"""Huntington Cir, Alpharetta, GA 30004, USA""",34.122945,-84.248834,"""GEOMETRIC_CENTER""",1998-02-01,3,2014_leak
120295,"""116 Perkins St, Melrose, MA 02176, USA""",42.4646,-71.078078,"""RANGE_INTERPOLATED""",1998-02-02,3,2014_leak
120370,"""Walmart Dr, Flippin, AR 72634, USA""",36.275208,-92.602668,"""GEOMETRIC_CENTER""",1998-02-03,3,2014_leak
120546,"""760 Boylston St, Boston, MA 02199, USA""",42.348812,-71.079945,"""ROOFTOP""",1998-02-09,3,2014_leak
120625,"""10 Glen Cross Rd, Wellesley Hills, MA 02481, USA""",42.322922,-71.270723,"""ROOFTOP""",1998-02-10,3,2014_leak
120626,"""9 Pine Ridge Rd, Wellesley Hills, MA 02481, USA""",42.3244,-71.267455,"""ROOFTOP""",1998-02-10,3,2014_leak
120593,"""Massachusetts, USA""",42.407211,-71.382437,"""APPROXIMATE""",1998-02-11,3,2014_leak
120741,"""Boston Logan International Airport, 1 Harborside Dr, Boston, MA 02128, USA""",42.365613,-71.00956,"""APPROXIMATE""",1998-02-14,3,2014_leak
120794,"""86 S Whitney St, Boston, MA 02120, USA""",42.332872,-71.102178,"""RANGE_INTERPOLATED""",1998-02-19,3,2014_leak
120814,"""Otis St, Somerville, MA 02145, USA""",42.387946,-71.08966,"""GEOMETRIC_CENTER""",1998-02-20,3,2014_leak
121058,"""Boston Logan International Airport, 1 Harborside Dr, Boston, MA 02128, USA""",42.365613,-71.00956,"""APPROXIMATE""",1998-02-27,3,2014_leak
121712,"""822 Main St, Hingham, MA 02043, USA""",42.201295,-70.883913,"""RANGE_INTERPOLATED""",1998-03-16,3,2014_leak
121706,"""Summer St, Weymouth, MA 02188, USA""",42.201376,-70.969804,"""GEOMETRIC_CENTER""",1998-03-16,3,2014_leak
121705,"""78 Summer St, Weymouth, MA 02188, USA""",42.211372,-70.966293,"""ROOFTOP""",1998-03-16,3,2014_leak
121702,"""14 Safford St, Quincy, MA 02171, USA""",42.272121,-71.030914,"""ROOFTOP""",1998-03-17,3,2014_leak
121287,"""Massachusetts, USA""",42.407211,-71.382437,"""APPROXIMATE""",1998-03-18,3,2014_leak
121397,"""Warren St, Boylston, MA 01505, USA""",42.350906,-71.694703,"""GEOMETRIC_CENTER""",1998-03-27,3,2014_leak
121534,"""Massachusetts, USA""",42.407211,-71.382437,"""APPROXIMATE""",1998-03-30,3,2014_leak
121659,"""Massachusetts, USA""",42.407211,-71.382437,"""APPROXIMATE""",1998-04-01,3,2014_leak
121588,"""23 Argyle Rd, Braintree, MA 02184, USA""",42.229018,-70.963455,"""ROOFTOP""",1998-04-01,3,2014_leak
121591,"""27 Brahma Dr, Garner, NC 27529, USA""",35.585501,-78.570446,"""RANGE_INTERPOLATED""",1998-04-02,3,2014_leak
122259,"""Mel, Igarap\u00e9 do Meio - MA, Brazil""",-3.633333,-45.116667,"""APPROXIMATE""",1998-04-02,3,2014_leak
121653,"""Massachusetts, USA""",42.407211,-71.382437,"""APPROXIMATE""",1998-04-02,3,2014_leak
121844,"""Jerusalem Rd, Cohasset, MA 02025, USA""",42.263516,-70.826904,"""GEOMETRIC_CENTER""",1998-04-03,3,2014_leak
122272,"""Massachusetts, USA""",42.407211,-71.382437,"""APPROXIMATE""",1998-04-03,3,2014_leak
122256,"""Mel, Igarap\u00e9 do Meio - MA, Brazil""",-3.633333,-45.116667,"""APPROXIMATE""",1998-04-03,3,2014_leak
121887,"""Bro Joseph A Herran Way, Boston, MA 02132, USA""",42.27706,-71.1665,"""GEOMETRIC_CENTER""",1998-04-06,3,2014_leak
122250,"""Mel, Igarap\u00e9 do Meio - MA, Brazil""",-3.633333,-45.116667,"""APPROXIMATE""",1998-04-07,3,2014_leak
121858,"""44 Home Park Rd, Braintree, MA 02184, USA""",42.228501,-70.999732,"""ROOFTOP""",1998-04-07,3,2014_leak
121845,"""95 S Main St, Cohasset, MA 02025, USA""",42.238843,-70.800635,"""ROOFTOP""",1998-04-07,3,2014_leak
121969,"""Massachusetts, USA""",42.407211,-71.382437,"""APPROXIMATE""",1998-04-08,3,2014_leak
121802,"""Massachusetts, USA""",42.407211,-71.382437,"""APPROXIMATE""",1998-04-08,3,2014_leak
121801,"""Hereford Blvd, Midland, TX 79707, USA""",32.000938,-102.16275,"""GEOMETRIC_CENTER""",1998-04-08,3,2014_leak
122199,"""Mel, Igarap\u00e9 do Meio - MA, Brazil""",-3.633333,-45.116667,"""APPROXIMATE""",1998-04-08,3,2014_leak
121967,"""Massachusetts, USA""",42.407211,-71.382437,"""APPROXIMATE""",1998-04-09,3,2014_leak
122154,"""Massachusetts, USA""",42.407211,-71.382437,"""APPROXIMATE""",1998-04-13,3,2014_leak
122960,"""Beach Rd, Ware, MA 01082, USA""",42.262906,-72.309834,"""GEOMETRIC_CENTER""",1998-04-13,3,2014_leak
122061,"""170 Fuller St, Pawtucket, RI 02861, USA""",41.875132,-71.35793,"""ROOFTOP""",1998-04-13,3,2014_leak
123458,"""Pleasant St, Dayville, CT 06241, USA""",41.847128,-71.886223,"""GEOMETRIC_CENTER""",1998-04-13,3,2014_leak
122126,"""Massachusetts, USA""",42.407211,-71.382437,"""APPROXIMATE""",1998-04-14,3,2014_leak
122127,"""Massachusetts, USA""",42.407211,-71.382437,"""APPROXIMATE""",1998-04-14,3,2014_leak
122483,"""245 Elm St, Braintree, MA 02184, USA""",42.223284,-70.998971,"""ROOFTOP""",1998-04-15,3,2014_leak
123186,"""Massachusetts, USA""",42.407211,-71.382437,"""APPROXIMATE""",1998-04-15,3,2014_leak
122125,"""Massachusetts, USA""",42.407211,-71.382437,"""APPROXIMATE""",1998-04-15,3,2014_leak
122356,"""Massachusetts, USA""",42.407211,-71.382437,"""APPROXIMATE""",1998-04-16,3,2014_leak
122353,"""Mel, Igarap\u00e9 do Meio - MA, Brazil""",-3.633333,-45.116667,"""APPROXIMATE""",1998-04-16,3,2014_leak
122352,"""Mel, Igarap\u00e9 do Meio - MA, Brazil""",-3.633333,-45.116667,"""APPROXIMATE""",1998-04-16,3,2014_leak
122573,"""Massachusetts, USA""",42.407211,-71.382437,"""APPROXIMATE""",1998-04-17,3,2014_leak
122342,"""Massachusetts, USA""",42.407211,-71.382437,"""APPROXIMATE""",1998-04-21,3,2014_leak
122927,"""Massachusetts, USA""",42.407211,-71.382437,"""APPROXIMATE""",1998-04-21,3,2014_leak
122503,"""DER, Colinas - MA, Brazil""",-6.017627,-44.254416,"""APPROXIMATE""",1998-04-23,3,2014_leak
122738,"""35 Hamilton St, Braintree, MA 02184, USA""",42.217035,-70.985939,"""ROOFTOP""",1998-04-27,3,2014_leak
123095,"""Massachusetts, USA""",42.407211,-71.382437,"""APPROXIMATE""",1998-04-28,3,2014_leak
122778,"""Massachusetts, USA""",42.407211,-71.382437,"""APPROXIMATE""",1998-04-28,3,2014_leak
122776,"""Massachusetts, USA""",42.407211,-71.382437,"""APPROXIMATE""",1998-04-28,3,2014_leak
122765,"""56 Abby Rd, Braintree, MA 02184, USA""",42.201075,-70.986934,"""ROOFTOP""",1998-04-29,3,2014_leak
123034,"""350 Plain St, Braintree, MA 02184, USA""",42.198963,-70.990084,"""ROOFTOP""",1998-04-30,3,2014_leak
123622,"""Massachusetts, USA""",42.407211,-71.382437,"""APPROXIMATE""",1998-04-30,3,2014_leak
122833,"""Mel, Igarap\u00e9 do Meio - MA, Brazil""",-3.633333,-45.116667,"""APPROXIMATE""",1998-04-30,3,2014_leak
122832,"""Mel, Igarap\u00e9 do Meio - MA, Brazil""",-3.633333,-45.116667,"""APPROXIMATE""",1998-04-30,3,2014_leak
123057,"""19 Wynot Rd, Braintree, MA 02184, USA""",42.213736,-71.003665,"""ROOFTOP""",1998-05-01,3,2014_leak
123112,"""41 Park Ave, Hull, MA 02045, USA""",42.26631,-70.852984,"""RANGE_INTERPOLATED""",1998-05-04,3,2014_leak
123979,"""Massachusetts, USA""",42.407211,-71.382437,"""APPROXIMATE""",1998-05-04,3,2014_leak
122942,"""Boston Logan International Airport, 1 Harborside Dr, Boston, MA 02128, USA""",42.365613,-71.00956,"""APPROXIMATE""",1998-05-04,3,2014_leak
123065,"""E Main St, Southbridge, MA 01550, USA""",42.07073,-72.017079,"""GEOMETRIC_CENTER""",1998-05-05,3,2014_leak
123193,"""Massachusetts, USA""",42.407211,-71.382437,"""APPROXIMATE""",1998-05-05,3,2014_leak
123063,"""27 Cliff St, Southbridge, MA 01550, USA""",42.08375,-72.041555,"""RANGE_INTERPOLATED""",1998-05-06,3,2014_leak
123666,"""150 Standard St, Boston, MA 02126, USA""",42.276368,-71.080362,"""RANGE_INTERPOLATED""",1998-05-07,3,2014_leak
123502,"""63 Parkside Dr, Gulfview Heights SA 5096, Australia""",-34.801589,138.669548,"""RANGE_INTERPOLATED""",1998-05-13,3,2014_leak
123522,"""Massachusetts, USA""",42.407211,-71.382437,"""APPROXIMATE""",1998-05-14,3,2014_leak
123511,"""25 Clifton Ave, Hull, MA 02045, USA""",42.276895,-70.881877,"""RANGE_INTERPOLATED""",1998-05-14,3,2014_leak
123670,"""15 Christine Terrace, South Weymouth, MA 02190, USA""",42.188556,-70.954368,"""ROOFTOP""",1998-05-14,3,2014_leak
123452,"""35 Highland Loop, Cle Elum, WA 98922, USA""",47.252249,-121.051489,"""RANGE_INTERPOLATED""",1998-05-14,3,2014_leak
123509,"""24 Clifton Ave, Hull, MA 02045, USA""",42.276921,-70.881921,"""RANGE_INTERPOLATED""",1998-05-14,3,2014_leak
123536,"""Ellsmore Terrace, Braintree, MA 02184, USA""",42.21293,-71.016221,"""GEOMETRIC_CENTER""",1998-05-15,3,2014_leak
124015,"""Bartlett St, St Joseph, MO 64501, USA""",39.752465,-94.853541,"""GEOMETRIC_CENTER""",1998-05-18,3,2014_leak
124002,"""Massachusetts, USA""",42.407211,-71.382437,"""APPROXIMATE""",1998-05-18,3,2014_leak
124010,"""380 Bro Joseph A Herran Way, Boston, MA 02132, USA""",42.27706,-71.166564,"""RANGE_INTERPOLATED""",1998-05-19,3,2014_leak
123956,"""Boston Logan International Airport, 1 Harborside Dr, Boston, MA 02128, USA""",42.365613,-71.00956,"""APPROXIMATE""",1998-05-21,3,2014_leak
123943,"""Boston Logan International Airport, 1 Harborside Dr, Boston, MA 02128, USA""",42.365613,-71.00956,"""APPROXIMATE""",1998-05-21,3,2014_leak
123774,"""Massachusetts, USA""",42.407211,-71.382437,"""APPROXIMATE""",1998-05-22,3,2014_leak
123781,"""15 Main St, Gilbertville, MA 01031, USA""",42.312386,-72.20527,"""ROOFTOP""",1998-05-22,3,2014_leak
123829,"""38 Cottage St, West Brookfield, MA 01585, USA""",42.236888,-72.144788,"""RANGE_INTERPOLATED""",1998-05-26,3,2014_leak
123839,"""118 E Main St, West Brookfield, MA 01585, USA""",42.231094,-72.13262,"""RANGE_INTERPOLATED""",1998-05-26,3,2014_leak
123906,"""5 Melbourne Ave, Newton, MA 02460, USA""",42.364081,-71.205301,"""RANGE_INTERPOLATED""",1998-05-27,3,2014_leak
124101,"""201 Jefferson St, Braintree, MA 02184, USA""",42.192404,-71.009407,"""ROOFTOP""",1998-05-28,3,2014_leak
124285,"""Massachusetts, USA""",42.407211,-71.382437,"""APPROXIMATE""",1998-05-29,3,2014_leak
124287,"""Massachusetts, USA""",42.407211,-71.382437,"""APPROXIMATE""",1998-05-29,3,2014_leak
124338,"""1666 Washington St, Braintree, MA 02184, USA""",42.181926,-71.012909,"""ROOFTOP""",1998-05-29,3,2014_leak
124286,"""Massachusetts, USA""",42.407211,-71.382437,"""APPROXIMATE""",1998-05-29,3,2014_leak
124045,"""Main St, Westfield, MA 01085, USA""",42.119139,-72.741309,"""GEOMETRIC_CENTER""",1998-05-31,3,2014_leak
124343,"""Washington St @ Hill View Rd, Braintree, MA 02184, USA""",42.178209,-71.014478,"""APPROXIMATE""",1998-06-01,3,2014_leak
124751,"""214 W Main St, Dudley, MA 01571, USA""",42.038003,-71.91676,"""RANGE_INTERPOLATED""",1998-06-02,3,2014_leak
124257,"""Massachusetts, USA""",42.407211,-71.382437,"""APPROXIMATE""",1998-06-02,3,2014_leak
124304,"""Massachusetts, USA""",42.407211,-71.382437,"""APPROXIMATE""",1998-06-02,3,2014_leak
124184,"""88 W Main St, Dudley, MA 01571, USA""",42.044803,-71.898828,"""RANGE_INTERPOLATED""",1998-06-02,3,2014_leak
124958,"""1437 Centre St, Boston, MA 02132, USA""",42.29344,-71.137641,"""ROOFTOP""",1998-06-03,3,2014_leak
124408,"""Massachusetts, USA""",42.407211,-71.382437,"""APPROXIMATE""",1998-06-04,3,2014_leak
124288,"""Massachusetts, USA""",42.407211,-71.382437,"""APPROXIMATE""",1998-06-05,3,2014_leak
124748,"""Bro Joseph A Herran Way, Boston, MA 02132, USA""",42.27706,-71.1665,"""GEOMETRIC_CENTER""",1998-06-10,3,2014_leak
124561,"""63 Lakewood Rd, South Weymouth, MA 02190, USA""",42.167064,-70.961982,"""ROOFTOP""",1998-06-10,3,2014_leak
124567,"""1400 Main St, South Weymouth, MA 02190, USA""",42.156434,-70.954831,"""ROOFTOP""",1998-06-11,3,2014_leak
125117,"""Massachusetts, USA""",42.407211,-71.382437,"""APPROXIMATE""",1998-06-11,3,2014_leak
125122,"""Massachusetts, USA""",42.407211,-71.382437,"""APPROXIMATE""",1998-06-11,3,2014_leak
127368,"""68 Larchmont Ave, Taunton, MA 02780, USA""",41.931343,-71.11281,"""RANGE_INTERPOLATED""",1998-06-11,3,2014_leak
124684,"""143 Central St, Weymouth, MA 02190, USA""",42.170081,-70.947694,"""ROOFTOP""",1998-06-12,3,2014_leak
124683,"""188 Central St, South Weymouth, MA 02190, USA""",42.169881,-70.94574,"""ROOFTOP""",1998-06-12,3,2014_leak
124756,"""NW Schoolhouse Rd, Dudley, MA 01571, USA""",42.065435,-71.96241,"""GEOMETRIC_CENTER""",1998-06-15,3,2014_leak
124690,"""24 White St, Weymouth, MA 02190, USA""",42.171058,-70.943464,"""RANGE_INTERPOLATED""",1998-06-15,3,2014_leak
124689,"""31 White St, South Weymouth, MA 02190, USA""",42.170871,-70.944187,"""ROOFTOP""",1998-06-15,3,2014_leak
125129,"""Massachusetts, USA""",42.407211,-71.382437,"""APPROXIMATE""",1998-06-15,3,2014_leak
124680,"""28 Rockcroft Rd, Weymouth, MA 02188, USA""",42.187167,-70.960585,"""ROOFTOP""",1998-06-15,3,2014_leak
124764,"""Massachusetts, USA""",42.407211,-71.382437,"""APPROXIMATE""",1998-06-16,3,2014_leak
124726,"""137 Harvard Ave, Boston, MA 02134, USA""",42.352014,-71.132038,"""ROOFTOP""",1998-06-16,3,2014_leak
124842,"""549 Union St, South Weymouth, MA 02190, USA""",42.159082,-70.932058,"""ROOFTOP""",1998-06-17,3,2014_leak
124845,"""507 Union St, South Weymouth, MA 02190, USA""",42.16047,-70.932872,"""ROOFTOP""",1998-06-17,3,2014_leak
124843,"""640 Union St, South Weymouth, MA 02190, USA""",42.157046,-70.927544,"""ROOFTOP""",1998-06-17,3,2014_leak
124838,"""49 Columbian St, Weymouth, MA 02190, USA""",42.17579,-70.952659,"""RANGE_INTERPOLATED""",1998-06-17,3,2014_leak
124908,"""15 Sylvester Rd, Dorchester, MA 02122, USA""",42.284535,-71.047781,"""ROOFTOP""",1998-06-18,3,2014_leak
124850,"""Massachusetts, USA""",42.407211,-71.382437,"""APPROXIMATE""",1998-06-19,3,2014_leak
124899,"""Massachusetts, USA""",42.407211,-71.382437,"""APPROXIMATE""",1998-06-19,3,2014_leak
125142,"""275 Brooklyn St, North Adams, MA 01247, USA""",42.709531,-73.111505,"""RANGE_INTERPOLATED""",1998-06-21,3,2014_leak
124983,"""249 Soi Sabai Chai, Lane 7, Khwaeng Samsen Nok, Khet Huai Khwang, Krung Thep Maha Nakhon 10310, Thailand""",13.79204,100.579165,"""RANGE_INTERPOLATED""",1998-06-22,3,2014_leak
125045,"""28 Apple Tree Ln, Weymouth, MA 02188, USA""",42.207307,-70.966652,"""ROOFTOP""",1998-06-23,3,2014_leak
125141,"""223 Brooklyn St, North Adams, MA 01247, USA""",42.709531,-73.111505,"""RANGE_INTERPOLATED""",1998-06-23,3,2014_leak
125042,"""422 Summer St, Weymouth, MA 02188, USA""",42.198774,-70.969948,"""ROOFTOP""",1998-06-23,3,2014_leak
125044,"""135 Union St, South Weymouth, MA 02190, USA""",42.171885,-70.944543,"""ROOFTOP""",1998-06-23,3,2014_leak
125208,"""395 Ashmont St, Dorchester Center, MA 02124, USA""",42.287706,-71.056101,"""ROOFTOP""",1998-06-23,3,2014_leak
125043,"""90 Union St, South Weymouth, MA 02190, USA""",42.173289,-70.946573,"""ROOFTOP""",1998-06-23,3,2014_leak
125177,"""44 Delia Walker Ave, South Weymouth, MA 02190, USA""",42.169908,-70.935688,"""ROOFTOP""",1998-06-24,3,2014_leak
125182,"""17 Blanchard Rd, Weymouth, MA 02190, USA""",42.174419,-70.948477,"""ROOFTOP""",1998-06-24,3,2014_leak
125179,"""120 Constitution Ave, South Weymouth, MA 02190, USA""",42.171427,-70.93653,"""ROOFTOP""",1998-06-24,3,2014_leak
125071,"""Massachusetts, USA""",42.407211,-71.382437,"""APPROXIMATE""",1998-06-24,3,2014_leak
125148,"""68 Waumbeck St, Boston, MA 02121, USA""",42.314681,-71.089203,"""ROOFTOP""",1998-06-24,3,2014_leak
125175,"""32 Delia Walker Ave, Weymouth, MA 02190, USA""",42.169953,-70.93628,"""ROOFTOP""",1998-06-24,3,2014_leak
125180,"""50 Black Hawk Rd, South Weymouth, MA 02190, USA""",42.170499,-70.934875,"""ROOFTOP""",1998-06-24,3,2014_leak
125162,"""21 Hewlett St, Boston, MA 02131, USA""",42.289735,-71.134529,"""ROOFTOP""",1998-06-25,3,2014_leak
125186,"""Chauncy St, Weymouth, MA 02190, USA""",42.172954,-70.951233,"""GEOMETRIC_CENTER""",1998-06-25,3,2014_leak
125099,"""38 Crawford St, Boston, MA 02121, USA""",42.311531,-71.085765,"""ROOFTOP""",1998-06-25,3,2014_leak
125185,"""55 Chauncy St, Weymouth, MA 02190, USA""",42.172399,-70.951595,"""ROOFTOP""",1998-06-25,3,2014_leak
125224,"""5 Brookvale St, Boston, MA 02124, USA""",42.278976,-71.065636,"""RANGE_INTERPOLATED""",1998-06-26,3,2014_leak
125130,"""Massachusetts, USA""",42.407211,-71.382437,"""APPROXIMATE""",1998-06-26,3,2014_leak
125500,"""89 Bald Eagle Rd, Weymouth, MA 02190, USA""",42.173986,-70.942773,"""ROOFTOP""",1998-06-29,3,2014_leak
125498,"""58 Great Republic Ave, South Weymouth, MA 02190, USA""",42.175161,-70.942761,"""ROOFTOP""",1998-06-29,3,2014_leak
125330,"""Massachusetts, USA""",42.407211,-71.382437,"""APPROXIMATE""",1998-07-01,3,2014_leak
125606,"""446 Ralph Talbot St, South Weymouth, MA 02190, USA""",42.179645,-70.92836,"""ROOFTOP""",1998-07-01,3,2014_leak
125380,"""Prescott Way, Fairfield, CA 94534, USA""",38.255628,-122.070003,"""GEOMETRIC_CENTER""",1998-07-01,3,2014_leak
125608,"""82 Federal St, Weymouth, MA 02188, USA""",42.207842,-70.961622,"""ROOFTOP""",1998-07-01,3,2014_leak
125514,"""Massachusetts, USA""",42.407211,-71.382437,"""APPROXIMATE""",1998-07-01,3,2014_leak
125795,"""50 Pokonoket Ave, Sudbury, MA 01776, USA""",42.364458,-71.407533,"""ROOFTOP""",1998-07-02,3,2014_leak
125794,"""119 Pokonoket Ave, Sudbury, MA 01776, USA""",42.369303,-71.409733,"""ROOFTOP""",1998-07-02,3,2014_leak
125600,"""Massachusetts, USA""",42.407211,-71.382437,"""APPROXIMATE""",1998-07-06,3,2014_leak
125706,"""Massachusetts, USA""",42.407211,-71.382437,"""APPROXIMATE""",1998-07-07,3,2014_leak
125703,"""73 Tamarack Trail, Weymouth, MA 02190, USA""",42.176763,-70.924162,"""RANGE_INTERPOLATED""",1998-07-07,3,2014_leak
125633,"""85 Greenleaf St, Boston, MA 02115, USA""",42.338396,-71.090297,"""RANGE_INTERPOLATED""",1998-07-07,3,2014_leak
125777,"""12 Heather St, Beverly, MA 01915, USA""",42.56136,-70.875197,"""ROOFTOP""",1998-07-08,3,2014_leak
125778,"""115 Odell Ave, Beverly, MA 01915, USA""",42.561258,-70.870685,"""ROOFTOP""",1998-07-09,3,2014_leak
125773,"""Massachusetts, USA""",42.407211,-71.382437,"""APPROXIMATE""",1998-07-09,3,2014_leak
125829,"""751 Broad St, Weymouth, MA 02189, USA""",42.216287,-70.927477,"""RANGE_INTERPOLATED""",1998-07-10,3,2014_leak
126111,"""74 Edwin St, Boston, MA 02124, USA""",42.289833,-71.059536,"""ROOFTOP""",1998-07-14,3,2014_leak
126107,"""70 Msgr Patrick J Lydon Way, Dorchester Center, MA 02124, USA""",42.289292,-71.059513,"""ROOFTOP""",1998-07-14,3,2014_leak
126031,"""Web Rd, Georgetown, MA 01833, USA""",42.746797,-70.949843,"""GEOMETRIC_CENTER""",1998-07-15,3,2014_leak
125981,"""Qian Jie, Mawei Qu, Fuzhou Shi, Fujian Sheng, China""",25.990512,119.445393,"""GEOMETRIC_CENTER""",1998-07-15,3,2014_leak
126112,"""8 Walker St, Weymouth, MA 02188, USA""",42.218044,-70.963117,"""ROOFTOP""",1998-07-15,3,2014_leak
125987,"""Massachusetts, USA""",42.407211,-71.382437,"""APPROXIMATE""",1998-07-15,3,2014_leak
125990,"""Massachusetts, USA""",42.407211,-71.382437,"""APPROXIMATE""",1998-07-15,3,2014_leak
125992,"""106 Washington St, Ayer, MA 01432, USA""",42.566778,-71.580496,"""ROOFTOP""",1998-07-15,3,2014_leak
126029,"""Web Rd, Georgetown, MA 01833, USA""",42.746797,-70.949843,"""GEOMETRIC_CENTER""",1998-07-15,3,2014_leak
126026,"""421 Webb Rd, New Braintree, MA 01531, USA""",42.305842,-72.116399,"""RANGE_INTERPOLATED""",1998-07-15,3,2014_leak
126258,"""10 Semont Rd, Dorchester Center, MA 02124, USA""",42.290864,-71.062423,"""ROOFTOP""",1998-07-16,3,2014_leak
126458,"""Massachusetts, USA""",42.407211,-71.382437,"""APPROXIMATE""",1998-07-20,3,2014_leak
126304,"""207 Highland Ave, Selma, AL 36701, USA""",32.431981,-87.037911,"""ROOFTOP""",1998-07-20,3,2014_leak
126457,"""Massachusetts, USA""",42.407211,-71.382437,"""APPROXIMATE""",1998-07-20,3,2014_leak
126229,"""74 Web Ave, North Kingstown, RI 02852, USA""",41.548735,-71.437884,"""RANGE_INTERPOLATED""",1998-07-21,3,2014_leak
126225,"""56 Webb St, Salem, MA 01970, USA""",42.526411,-70.885261,"""ROOFTOP""",1998-07-21,3,2014_leak
126437,"""54 Shirley Rd, Groton, MA 01450, USA""",42.590183,-71.585901,"""RANGE_INTERPOLATED""",1998-07-21,3,2014_leak
126867,"""91 Belgrade Ave, Roslindale, MA 02131, USA""",42.28656,-71.133932,"""ROOFTOP""",1998-07-21,3,2014_leak
126550,"""81 Park St, Boston, MA 02122, USA""",42.299844,-71.056828,"""RANGE_INTERPOLATED""",1998-07-21,3,2014_leak
126387,"""Massachusetts, USA""",42.407211,-71.382437,"""APPROXIMATE""",1998-07-22,3,2014_leak
126445,"""46 Hollis St, Framingham, MA 01702, USA""",42.275582,-71.416707,"""ROOFTOP""",1998-07-22,3,2014_leak
126453,"""26 Fairview Ave, Randolph, MA 02368, USA""",42.157206,-71.045673,"""ROOFTOP""",1998-07-23,3,2014_leak
126507,"""Massachusetts, USA""",42.407211,-71.382437,"""APPROXIMATE""",1998-07-23,3,2014_leak
126571,"""11 Water St, East Weymouth, MA 02189, USA""",42.214414,-70.924131,"""ROOFTOP""",1998-07-23,3,2014_leak
126585,"""68 Circuit Ave, Weymouth, MA 02188, USA""",42.196972,-70.951368,"""ROOFTOP""",1998-07-24,3,2014_leak
126615,"""Massachusetts, USA""",42.407211,-71.382437,"""APPROXIMATE""",1998-07-27,3,2014_leak
126600,"""24 Abbott St, Beverly, MA 01915, USA""",42.547624,-70.877089,"""RANGE_INTERPOLATED""",1998-07-27,3,2014_leak
126614,"""Massachusetts, USA""",42.407211,-71.382437,"""APPROXIMATE""",1998-07-27,3,2014_leak
126699,"""306 Middle St, East Weymouth, MA 02189, USA""",42.212777,-70.940506,"""ROOFTOP""",1998-07-28,3,2014_leak
126761,"""Massachusetts, USA""",42.407211,-71.382437,"""APPROXIMATE""",1998-07-29,3,2014_leak
126739,"""295 Lake St, Weymouth, MA 02189, USA""",42.210129,-70.941535,"""ROOFTOP""",1998-07-29,3,2014_leak
126763,"""Massachusetts, USA""",42.407211,-71.382437,"""APPROXIMATE""",1998-07-29,3,2014_leak
126754,"""9 Lakeside Ave, East Weymouth, MA 02189, USA""",42.211885,-70.930345,"""ROOFTOP""",1998-07-30,3,2014_leak
126755,"""Massachusetts, USA""",42.407211,-71.382437,"""APPROXIMATE""",1998-07-30,3,2014_leak
126977,"""47 Suwanee Rd, East Weymouth, MA 02189, USA""",42.219402,-70.916815,"""ROOFTOP""",1998-08-03,3,2014_leak
127284,"""Massachusetts, USA""",42.407211,-71.382437,"""APPROXIMATE""",1998-08-03,3,2014_leak
127042,"""17 Pleasant St, Dorchester, MA 02125, USA""",42.31753,-71.059453,"""ROOFTOP""",1998-08-04,3,2014_leak
127045,"""69 Mayfield St, Boston, MA 02125, USA""",42.316986,-71.05988,"""ROOFTOP""",1998-08-04,3,2014_leak
127012,"""92 Grant St, East Weymouth, MA 02189, USA""",42.217997,-70.919683,"""ROOFTOP""",1998-08-04,3,2014_leak
127106,"""9 Wachusett St, Lowell, MA 01850, USA""",42.656675,-71.302096,"""RANGE_INTERPOLATED""",1998-08-04,3,2014_leak
126954,"""7 Ray St, Beverly, MA 01915, USA""",42.555906,-70.861658,"""ROOFTOP""",1998-08-04,3,2014_leak
127054,"""43 Putnam St, East Weymouth, MA 02189, USA""",42.218801,-70.932236,"""ROOFTOP""",1998-08-05,3,2014_leak
127046,"""87 Chard St, East Weymouth, MA 02189, USA""",42.221511,-70.935232,"""ROOFTOP""",1998-08-05,3,2014_leak
127052,"""84 Chard St, East Weymouth, MA 02189, USA""",42.221003,-70.935671,"""ROOFTOP""",1998-08-05,3,2014_leak
127055,"""27 Putnam St, East Weymouth, MA 02189, USA""",42.218494,-70.931957,"""ROOFTOP""",1998-08-05,3,2014_leak
127051,"""152 Chard St, East Weymouth, MA 02189, USA""",42.222035,-70.937996,"""ROOFTOP""",1998-08-05,3,2014_leak
127023,"""Massachusetts, USA""",42.407211,-71.382437,"""APPROXIMATE""",1998-08-05,3,2014_leak
127048,"""88 Chard St, East Weymouth, MA 02189, USA""",42.221116,-70.935878,"""ROOFTOP""",1998-08-05,3,2014_leak
127090,"""213 Winn St, Woburn, MA 01801, USA""",42.488475,-71.168372,"""ROOFTOP""",1998-08-06,3,2014_leak
127119,"""396 Washington St, Weymouth, MA 02189, USA""",42.210638,-70.958542,"""ROOFTOP""",1998-08-06,3,2014_leak
127116,"""1320 Commercial St, East Weymouth, MA 02189, USA""",42.216198,-70.924926,"""ROOFTOP""",1998-08-06,3,2014_leak
127753,"""Massachusetts, USA""",42.407211,-71.382437,"""APPROXIMATE""",1998-08-06,3,2014_leak
127253,"""Law St, Provincetown, MA 02657, USA""",42.054934,-70.183253,"""GEOMETRIC_CENTER""",1998-08-06,3,2014_leak
127212,"""36 East St, Boston, MA 02122, USA""",42.307463,-71.06028,"""ROOFTOP""",1998-08-06,3,2014_leak
127093,"""Massachusetts, USA""",42.407211,-71.382437,"""APPROXIMATE""",1998-08-06,3,2014_leak
127204,"""46 Mount Vernon Rd W, East Weymouth, MA 02189, USA""",42.226153,-70.937142,"""ROOFTOP""",1998-08-07,3,2014_leak
127202,"""60 Mount Vernon Rd W, East Weymouth, MA 02189, USA""",42.226758,-70.937456,"""ROOFTOP""",1998-08-07,3,2014_leak
127328,"""Puritan Rd, Weymouth, MA 02189, USA""",42.227954,-70.929841,"""GEOMETRIC_CENTER""",1998-08-10,3,2014_leak
127310,"""8 Coolidge Ave, Weymouth, MA 02188, USA""",42.224329,-70.954211,"""ROOFTOP""",1998-08-10,3,2014_leak
127342,"""Massachusetts, USA""",42.407211,-71.382437,"""APPROXIMATE""",1998-08-10,3,2014_leak
127321,"""93 Wilson Ave, Weymouth, MA 02188, USA""",42.222921,-70.95348,"""ROOFTOP""",1998-08-10,3,2014_leak
127388,"""124 Stoughton St, Dorchester, MA 02125, USA""",42.315346,-71.060766,"""ROOFTOP""",1998-08-10,2,2014_leak
127387,"""91 Stoughton St, Boston, MA 02125, USA""",42.31569,-71.062083,"""RANGE_INTERPOLATED""",1998-08-10,3,2014_leak
127332,"""Lee St, Weymouth, MA 02189, USA""",42.223293,-70.927002,"""GEOMETRIC_CENTER""",1998-08-10,3,2014_leak
127330,"""Emerson St, Weymouth, MA 02189, USA""",42.226307,-70.928836,"""GEOMETRIC_CENTER""",1998-08-10,3,2014_leak
127301,"""104 Endicott St, Weymouth, MA 02189, USA""",42.223551,-70.928882,"""ROOFTOP""",1998-08-11,3,2014_leak
127309,"""44 Soper Ave, Weymouth, MA 02188, USA""",42.226529,-70.956745,"""ROOFTOP""",1998-08-11,3,2014_leak
127308,"""96 Seminole Ave, Weymouth, MA 02188, USA""",42.230209,-70.956476,"""ROOFTOP""",1998-08-11,3,2014_leak
127578,"""Tanbark Rd, Sudbury, MA 01776, USA""",42.37894,-71.448859,"""GEOMETRIC_CENTER""",1998-08-12,3,2014_leak
127354,"""22 Web Ave, North Kingstown, RI 02852, USA""",41.548563,-71.437955,"""RANGE_INTERPOLATED""",1998-08-13,3,2014_leak
127473,"""596 East St, Weymouth, MA 02189, USA""",42.219263,-70.926954,"""ROOFTOP""",1998-08-14,3,2014_leak
127720,"""Massachusetts, USA""",42.407211,-71.382437,"""APPROXIMATE""",1998-08-17,3,2014_leak
127639,"""57 Doris Dr, Weymouth, MA 02191, USA""",42.236667,-70.93347,"""ROOFTOP""",1998-08-18,3,2014_leak
127636,"""87 Abigail Adams Cir, North Weymouth, MA 02191, USA""",42.231652,-70.947042,"""ROOFTOP""",1998-08-18,3,2014_leak
127843,"""244 Manchester St, Mattapan, MA 02126, USA""",42.273463,-71.078285,"""ROOFTOP""",1998-08-19,3,2014_leak
127825,"""29 Holmes Ave, North Weymouth, MA 02191, USA""",42.239669,-70.937244,"""ROOFTOP""",1998-08-20,3,2014_leak
127821,"""9 Rosemont Rd, North Weymouth, MA 02191, USA""",42.242117,-70.958353,"""ROOFTOP""",1998-08-21,3,2014_leak
127820,"""30 Woronoco Rd, Weymouth, MA 02191, USA""",42.239171,-70.952219,"""RANGE_INTERPOLATED""",1998-08-21,3,2014_leak
127818,"""Moreland Rd, Weymouth, MA 02191, USA""",42.235055,-70.940614,"""GEOMETRIC_CENTER""",1998-08-21,3,2014_leak
127927,"""159 Bridge St, North Weymouth, MA 02191, USA""",42.242406,-70.959174,"""ROOFTOP""",1998-08-24,3,2014_leak
128282,"""6 Boundary Rd, Malden, MA 02148, USA""",42.427404,-71.083228,"""ROOFTOP""",1998-08-24,3,2014_leak
127929,"""701 Bridge St, Weymouth, MA 02191, USA""",42.245306,-70.937229,"""RANGE_INTERPOLATED""",1998-08-24,3,2014_leak
128067,"""537 North St, Weymouth, MA 02191, USA""",42.230756,-70.944773,"""ROOFTOP""",1998-08-25,3,2014_leak
127972,"""7 Pecksuot Rd, North Weymouth, MA 02191, USA""",42.249143,-70.949147,"""ROOFTOP""",1998-08-25,3,2014_leak
128064,"""188 W Selden St, Mattapan, MA 02126, USA""",42.274612,-71.088086,"""ROOFTOP""",1998-08-25,3,2014_leak
128079,"""63 Great Hill Dr, Weymouth, MA 02191, USA""",42.25034,-70.938955,"""ROOFTOP""",1998-08-27,3,2014_leak
128097,"""12 Harbor View Ave, Weymouth, MA 02191, USA""",42.247253,-70.950801,"""ROOFTOP""",1998-08-28,3,2014_leak
128100,"""45 Parnell St, Weymouth, MA 02191, USA""",42.255913,-70.935092,"""ROOFTOP""",1998-08-28,3,2014_leak
128103,"""Massachusetts, USA""",42.407211,-71.382437,"""APPROXIMATE""",1998-08-30,3,2014_leak
128170,"""Massachusetts, USA""",42.407211,-71.382437,"""APPROXIMATE""",1998-08-31,3,2014_leak
128237,"""Massachusetts, USA""",42.407211,-71.382437,"""APPROXIMATE""",1998-08-31,3,2014_leak
128227,"""14 Caldwell St, North Weymouth, MA 02191, USA""",42.256555,-70.934651,"""ROOFTOP""",1998-08-31,3,2014_leak
128337,"""119 Babcock Ave, North Weymouth, MA 02191, USA""",42.244396,-70.956952,"""ROOFTOP""",1998-09-01,3,2014_leak
128331,"""86 Babcock Ave, Weymouth, MA 02191, USA""",42.244512,-70.955477,"""ROOFTOP""",1998-09-02,3,2014_leak
129024,"""New St, Worcester, MA 01605, USA""",42.286271,-71.794818,"""GEOMETRIC_CENTER""",1998-09-03,3,2014_leak
129296,"""Massachusetts, USA""",42.407211,-71.382437,"""APPROXIMATE""",1998-09-09,3,2014_leak
128572,"""Massachusetts, USA""",42.407211,-71.382437,"""APPROXIMATE""",1998-09-09,3,2014_leak
128778,"""42 Peacevale Rd, Boston, MA 02124, USA""",42.286679,-71.076109,"""RANGE_INTERPOLATED""",1998-09-11,3,2014_leak
128889,"""74 Norfolk St, Dorchester Center, MA 02124, USA""",42.288662,-71.074847,"""ROOFTOP""",1998-09-14,3,2014_leak
128902,"""551 Norfolk St, Mattapan, MA 02126, USA""",42.278268,-71.090902,"""ROOFTOP""",1998-09-15,3,2014_leak
128903,"""Blue Hill Avenue, Massachusetts, USA""",42.285634,-71.090896,"""GEOMETRIC_CENTER""",1998-09-15,3,2014_leak
128843,"""Massachusetts, USA""",42.407211,-71.382437,"""APPROXIMATE""",1998-09-16,3,2014_leak
129162,"""118 Hale St, Beverly, MA 01915, USA""",42.551022,-70.865174,"""ROOFTOP""",1998-09-23,3,2014_leak
129117,"""94 Floyd St, Dorchester Center, MA 02124, USA""",42.288485,-71.085819,"""ROOFTOP""",1998-09-23,3,2014_leak
129115,"""35 Mill St, Revere, MA 02151, USA""",42.405349,-71.010828,"""RANGE_INTERPOLATED""",1998-09-24,3,2014_leak
129282,"""Wall St, Charlestown, RI 02813, USA""",41.368118,-71.62524,"""GEOMETRIC_CENTER""",1998-09-25,3,2014_leak
129761,"""Massachusetts, USA""",42.407211,-71.382437,"""APPROXIMATE""",1998-09-28,3,2014_leak
129221,"""4 Meadowbrook Rd, Saugus, MA 01906, USA""",42.453759,-71.013408,"""RANGE_INTERPOLATED""",1998-09-28,3,2014_leak
130012,"""37 Pilgrim Rd, Milton, MA 02186, USA""",42.255908,-71.036741,"""ROOFTOP""",1998-09-28,3,2014_leak
129267,"""100 Lynn St, New Bedford, MA 02745, USA""",41.686081,-70.935817,"""RANGE_INTERPOLATED""",1998-09-28,3,2014_leak
129343,"""31 Mill Hill Rd, Pine Plains, NY 12567, USA""",42.032742,-73.669877,"""RANGE_INTERPOLATED""",1998-09-28,3,2014_leak
129240,"""185 Lincoln Rd, Salem, MA 01970, USA""",42.496427,-70.890883,"""RANGE_INTERPOLATED""",1998-09-28,3,2014_leak
129253,"""Massachusetts, USA""",42.407211,-71.382437,"""APPROXIMATE""",1998-09-28,3,2014_leak
129232,"""6 Revolutionary Rd, Sudbury, MA 01776, USA""",42.36228,-71.447602,"""ROOFTOP""",1998-09-28,3,2014_leak
129531,"""Evelyn St, Norfolk, VA 23518, USA""",36.928606,-76.241427,"""GEOMETRIC_CENTER""",1998-09-30,3,2014_leak
129431,"""Boston Logan International Airport, 1 Harborside Dr, Boston, MA 02128, USA""",42.365613,-71.00956,"""APPROXIMATE""",1998-10-01,3,2014_leak
129757,"""40 Prospect Ave, Quincy, MA 02170, USA""",42.26227,-71.021205,"""ROOFTOP""",1998-10-01,3,2014_leak
129542,"""25 Grace Dr, Cohasset, MA 02025, USA""",42.257902,-70.843815,"""RANGE_INTERPOLATED""",1998-10-02,3,2014_leak
129687,"""101 Hamilton St, Boston, MA 02125, USA""",42.307227,-71.068653,"""ROOFTOP""",1998-10-05,3,2014_leak
129679,"""Massachusetts, USA""",42.407211,-71.382437,"""APPROXIMATE""",1998-10-05,3,2014_leak
129612,"""90 S Whitney St, Boston, MA 02120, USA""",42.332856,-71.102188,"""RANGE_INTERPOLATED""",1998-10-05,3,2014_leak
129688,"""Mallon Rd, Boston, MA 02121, USA""",42.302432,-71.074734,"""GEOMETRIC_CENTER""",1998-10-06,3,2014_leak
129677,"""369 Redemption Rock Trail N, Princeton, MA 01541, USA""",42.51034,-71.875981,"""RANGE_INTERPOLATED""",1998-10-06,3,2014_leak
129960,"""88-90 Highland Ave, Arlington, MA 02476, USA""",42.414614,-71.168657,"""ROOFTOP""",1998-10-06,3,2014_leak
129881,"""177 Lawrence Rd, Brookline, MA 02446, USA""",42.34016,-71.116332,"""RANGE_INTERPOLATED""",1998-10-12,3,2014_leak
130014,"""17 Howe St, Watertown, MA 02472, USA""",42.3669,-71.165273,"""ROOFTOP""",1998-10-13,3,2014_leak
129917,"""Massachusetts, USA""",42.407211,-71.382437,"""APPROXIMATE""",1998-10-13,3,2014_leak
129918,"""320 Washington St, Dorchester, MA 02121, USA""",42.300155,-71.074168,"""ROOFTOP""",1998-10-13,3,2014_leak
130150,"""15 King St, Boston, MA 02119, USA""",42.330788,-71.092675,"""RANGE_INTERPOLATED""",1998-10-14,3,2014_leak
130272,"""31 Duke St, Mattapan, MA 02126, USA""",42.281453,-71.095111,"""ROOFTOP""",1998-10-14,3,2014_leak
130005,"""Do Qui Dr, Acton, MA 01720, USA""",42.525486,-71.424024,"""GEOMETRIC_CENTER""",1998-10-15,3,2014_leak
130268,"""Massachusetts, USA""",42.407211,-71.382437,"""APPROXIMATE""",1998-10-16,3,2014_leak
130108,"""Keene St, Stoneham, MA 02180, USA""",42.491634,-71.09323,"""GEOMETRIC_CENTER""",1998-10-16,3,2014_leak
130250,"""16 Algonquin St, Dorchester Center, MA 02124, USA""",42.297701,-71.07357,"""ROOFTOP""",1998-10-19,3,2014_leak
130730,"""Massachusetts, USA""",42.407211,-71.382437,"""APPROXIMATE""",1998-10-23,3,2014_leak
130340,"""Massachusetts, USA""",42.407211,-71.382437,"""APPROXIMATE""",1998-10-26,3,2014_leak
130339,"""Massachusetts, USA""",42.407211,-71.382437,"""APPROXIMATE""",1998-10-26,3,2014_leak
130706,"""271 Jerusalem Rd, Cohasset, MA 02025, USA""",42.257768,-70.812412,"""ROOFTOP""",1998-10-27,3,2014_leak
130403,"""Maplewood St, Malden, MA 02148, USA""",42.429916,-71.0455,"""GEOMETRIC_CENTER""",1998-10-28,3,2014_leak
130666,"""140 Stanwood St, Boston, MA 02121, USA""",42.307909,-71.077687,"""ROOFTOP""",1998-10-28,3,2014_leak
130665,"""113 Stanwood St, Dorchester, MA 02121, USA""",42.308078,-71.078974,"""ROOFTOP""",1998-10-28,3,2014_leak
130673,"""198 Geneva Ave, Boston, MA 02121, USA""",42.30555,-71.075693,"""ROOFTOP""",1998-10-28,3,2014_leak
130692,"""281 Forrest St, Plaistow, NH 03865, USA""",42.818526,-71.063021,"""RANGE_INTERPOLATED""",1998-11-03,3,2014_leak
130736,"""15 Forenza Rd, Peabody, MA 01960, USA""",42.534031,-70.996733,"""ROOFTOP""",1998-11-03,3,2014_leak
130763,"""141 Goodale St, Peabody, MA 01960, USA""",42.552931,-70.998755,"""ROOFTOP""",1998-11-04,3,2014_leak
130843,"""Winthrop St, Boston, MA 02119, USA""",42.324494,-71.078132,"""GEOMETRIC_CENTER""",1998-11-05,3,2014_leak
130842,"""14R Winthrop St, Roxbury, MA 02119, USA""",42.326496,-71.082369,"""ROOFTOP""",1998-11-05,3,2014_leak
131087,"""Massachusetts, USA""",42.407211,-71.382437,"""APPROXIMATE""",1998-11-06,3,2014_leak
130910,"""10 Richardson Rd, Lynn, MA 01904, USA""",42.484355,-70.960018,"""RANGE_INTERPOLATED""",1998-11-06,3,2014_leak
131120,"""Massachusetts, USA""",42.407211,-71.382437,"""APPROXIMATE""",1998-11-18,3,2014_leak
131450,"""Massachusetts, USA""",42.407211,-71.382437,"""APPROXIMATE""",1998-11-27,3,2014_leak
131378,"""Washington St @ Myrtle St - Cobble Hill Apt, Somerville, MA 02143, USA""",42.381734,-71.08381,"""APPROXIMATE""",1998-12-03,3,2014_leak
131547,"""Darb Al Boos, Cairo Governorate, Egypt""",30.031175,31.255488,"""GEOMETRIC_CENTER""",1998-12-03,3,2014_leak
131709,"""241 Jerusalem Rd, Cohasset, MA 02025, USA""",42.256423,-70.812544,"""ROOFTOP""",1998-12-04,3,2014_leak
143900,"""Warren St, Boston, MA 02121, USA""",42.309565,-71.082639,"""GEOMETRIC_CENTER""",1999-01-06,3,2014_leak
144061,"""49-51 Callender St, Boston, MA 02124, USA""",42.289097,-71.080787,"""ROOFTOP""",1999-02-01,3,2014_leak
144759,"""23 Washington St, Boston, MA 02121, USA""",42.307374,-71.082799,"""ROOFTOP""",1999-02-04,3,2014_leak
145078,"""Massachusetts, USA""",42.407211,-71.382437,"""APPROXIMATE""",1999-02-19,3,2014_leak
145226,"""35 Lyman St, Beverly, MA 01915, USA""",42.56147,-70.880223,"""ROOFTOP""",1999-02-23,3,2014_leak
145651,"""20 Sagamore St, Braintree, MA 02184, USA""",42.200854,-70.996803,"""ROOFTOP""",1999-03-03,3,2014_leak
146035,"""94 Lyndhurst St, Boston, MA 02124, USA""",42.293551,-71.067507,"""RANGE_INTERPOLATED""",1999-03-11,3,2014_leak
146317,"""Massachusetts, USA""",42.407211,-71.382437,"""APPROXIMATE""",1999-03-12,3,2014_leak
146580,"""24 Saranac St, Boston, MA 02122, USA""",42.284312,-71.054042,"""ROOFTOP""",1999-03-18,3,2014_leak
146856,"""187 Quincy St, Boston, MA 02121, USA""",42.31311,-71.075585,"""ROOFTOP""",1999-03-24,3,2014_leak
147419,"""208 Washington St, Boston, MA 02121, USA""",42.30254,-71.077911,"""RANGE_INTERPOLATED""",1999-04-01,3,2014_leak
156760,"""Massachusetts, USA""",42.407211,-71.382437,"""APPROXIMATE""",1999-04-07,3,2014_leak
147625,"""Blue Hill Rd, Chesterfield, MO 63017, USA""",38.617063,-90.573282,"""GEOMETRIC_CENTER""",1999-04-07,3,2014_leak
148217,"""Massachusetts, USA""",42.407211,-71.382437,"""APPROXIMATE""",1999-04-13,3,2014_leak
147904,"""1 Waldemar Ave, Beverly, MA 01915, USA""",42.548292,-70.861976,"""ROOFTOP""",1999-04-13,3,2014_leak
148184,"""Massachusetts, USA""",42.407211,-71.382437,"""APPROXIMATE""",1999-04-13,3,2014_leak
148195,"""147 Ralph Talbot St, South Weymouth, MA 02190, USA""",42.176442,-70.941364,"""ROOFTOP""",1999-04-16,3,2014_leak
148158,"""Massachusetts, USA""",42.407211,-71.382437,"""APPROXIMATE""",1999-04-16,3,2014_leak
148476,"""23 Circuit Ave, Weymouth, MA 02188, USA""",42.197922,-70.949706,"""ROOFTOP""",1999-04-22,3,2014_leak
148478,"""31 Circuit Ave, Weymouth, MA 02188, USA""",42.197858,-70.950073,"""ROOFTOP""",1999-04-22,3,2014_leak
148890,"""55 Essex St, Weymouth, MA 02188, USA""",42.21047,-70.945864,"""ROOFTOP""",1999-04-26,3,2014_leak
148903,"""Massachusetts, USA""",42.407211,-71.382437,"""APPROXIMATE""",1999-04-26,3,2014_leak
149153,"""Massachusetts, USA""",42.407211,-71.382437,"""APPROXIMATE""",1999-04-26,3,2014_leak
148540,"""Boston Logan International Airport, 1 Harborside Dr, Boston, MA 02128, USA""",42.365613,-71.00956,"""APPROXIMATE""",1999-04-26,3,2014_leak
148891,"""37 Karlyn Rd, Weymouth, MA 02188, USA""",42.214777,-70.947224,"""ROOFTOP""",1999-04-26,3,2014_leak
148887,"""72 Essex St, Weymouth, MA 02188, USA""",42.210446,-70.946857,"""ROOFTOP""",1999-04-26,3,2014_leak
148897,"""6 Peverell St, Boston, MA 02125, USA""",42.313864,-71.061512,"""RANGE_INTERPOLATED""",1999-04-27,3,2014_leak
148660,"""64-66 Franklin St, Arlington, MA 02474, USA""",42.415769,-71.147047,"""ROOFTOP""",1999-04-27,3,2014_leak
148656,"""74-76 River St, Arlington, MA 02474, USA""",42.414409,-71.139636,"""ROOFTOP""",1999-04-27,3,2014_leak
